[
    {
        "id": 1,
        "name": "UNIVERSITAS EKA SAKTI (UNES)",
        "lat": -0.9382971,
        "lng": 100.3562127
    },
    {
        "id": 2,
        "name": "Unnamed Campus",
        "lat": -8.672442,
        "lng": 115.2192697
    },
    {
        "id": 3,
        "name": "Institut Hindu Dharma Negeri",
        "lat": -8.6411172,
        "lng": 115.2289038
    },
    {
        "id": 4,
        "name": "Universitas Airlangga",
        "lat": -7.2678695,
        "lng": 112.7730313
    },
    {
        "id": 5,
        "name": "Universitas Veteran Sukoharjo",
        "lat": -7.6651089,
        "lng": 110.8380639
    },
    {
        "id": 6,
        "name": "Universitas Nadhlatul Ulama Surabaya",
        "lat": -7.3225687,
        "lng": 112.7392272
    },
    {
        "id": 7,
        "name": "Politeknik Kesehatan Denpasar",
        "lat": -8.6511835,
        "lng": 115.2696071
    },
    {
        "id": 8,
        "name": "Universitas Kejuangan 45 Jakarta",
        "lat": -6.1344494,
        "lng": 106.7380849
    },
    {
        "id": 9,
        "name": "STIKOM, STIMIK",
        "lat": 1.4568889,
        "lng": 124.8223107
    },
    {
        "id": 10,
        "name": "Universitas Kristen Papua",
        "lat": -0.8757109,
        "lng": 131.3054484
    },
    {
        "id": 11,
        "name": "Politeknik Kesehatan",
        "lat": -0.8946168,
        "lng": 131.3173945
    },
    {
        "id": 12,
        "name": "STKIS",
        "lat": -0.8990863,
        "lng": 131.3086656
    },
    {
        "id": 13,
        "name": "STAIN Sorong",
        "lat": -0.9318637,
        "lng": 131.3323759
    },
    {
        "id": 14,
        "name": "Universitas PGRI Semarang",
        "lat": -6.9886614,
        "lng": 110.4355728
    },
    {
        "id": 15,
        "name": "Kampus IAIC",
        "lat": -7.3500551,
        "lng": 108.1269063
    },
    {
        "id": 16,
        "name": "Universitas Hasanuddin (Kampus Baraya)",
        "lat": -5.1229072,
        "lng": 119.4292085
    },
    {
        "id": 17,
        "name": "Politeknik Kesehatan Makassar",
        "lat": -5.163491,
        "lng": 119.4210917
    },
    {
        "id": 18,
        "name": "Unnamed Campus",
        "lat": -2.9703821,
        "lng": 120.1851623
    },
    {
        "id": 19,
        "name": "Universitas Mpu Tantular",
        "lat": -6.2257008,
        "lng": 106.8763682
    },
    {
        "id": 20,
        "name": "Universitas Muhammadiyah Purworejo",
        "lat": -7.7140483,
        "lng": 110.013897
    },
    {
        "id": 21,
        "name": "Pasca Sarjana UNM",
        "lat": -5.1682387,
        "lng": 119.4350827
    },
    {
        "id": 22,
        "name": "Universitas Indo Global Mandiri",
        "lat": -2.9633128,
        "lng": 104.740873
    },
    {
        "id": 23,
        "name": "Universitas Dian Nuswantoro",
        "lat": -6.9815755,
        "lng": 110.4088331
    },
    {
        "id": 24,
        "name": "Universitas Putra Indonesia",
        "lat": -0.9584316,
        "lng": 100.3964602
    },
    {
        "id": 25,
        "name": "Universitas AKI",
        "lat": -6.9701435,
        "lng": 110.4213128
    },
    {
        "id": 26,
        "name": "Universitas IBA",
        "lat": -2.964613,
        "lng": 104.7640861
    },
    {
        "id": 27,
        "name": "Universitas Mega Rezky (Unimerz)",
        "lat": -5.1623006,
        "lng": 119.4772636
    },
    {
        "id": 28,
        "name": "Universitas Mercu Buana",
        "lat": -7.7631816,
        "lng": 110.394598
    },
    {
        "id": 29,
        "name": "UIN Syarif Hidayatullah",
        "lat": -6.3095397,
        "lng": 106.7563592
    },
    {
        "id": 30,
        "name": "Gedung Fakultas Teknik UNP",
        "lat": -0.8980184,
        "lng": 100.3493294
    },
    {
        "id": 31,
        "name": "Kampus Pusat UPN \"Veteran\" Yogyakarta",
        "lat": -7.7625434,
        "lng": 110.4095042
    },
    {
        "id": 32,
        "name": "Universitas Sriwijaya",
        "lat": -3.2257811,
        "lng": 104.6478572
    },
    {
        "id": 33,
        "name": "Universitas Sunan Bonang",
        "lat": -6.9002308,
        "lng": 112.0488724
    },
    {
        "id": 34,
        "name": "Universitas Lancang Kuning",
        "lat": 0.5760788,
        "lng": 101.4265348
    },
    {
        "id": 35,
        "name": "Universitas Diponegoro",
        "lat": -7.0515449,
        "lng": 110.4398259
    },
    {
        "id": 36,
        "name": "Universitas Brawijaya",
        "lat": -7.9519055,
        "lng": 112.6145252
    },
    {
        "id": 37,
        "name": "Universitas Sanata Dharma, Mrican",
        "lat": -7.7748648,
        "lng": 110.3912204
    },
    {
        "id": 38,
        "name": "Universitas Merdeka Malang",
        "lat": -7.9721156,
        "lng": 112.6096202
    },
    {
        "id": 39,
        "name": "Sekolah Tinggi Ilmu Komputer dan Informatika Malang",
        "lat": -7.9663495,
        "lng": 112.6076491
    },
    {
        "id": 40,
        "name": "Politeknik Pembangunan Pertanian",
        "lat": -6.6041424,
        "lng": 106.787882
    },
    {
        "id": 41,
        "name": "Politeknik Ilmu Pelayaran Makassar",
        "lat": -5.0640135,
        "lng": 119.4777346
    },
    {
        "id": 42,
        "name": "Politeknik Penerbangan Makassar",
        "lat": -5.0623144,
        "lng": 119.4809934
    },
    {
        "id": 43,
        "name": "Universitas Hasanuddin",
        "lat": -5.1326045,
        "lng": 119.4874391
    },
    {
        "id": 44,
        "name": "Politeknik Negeri Ujung Pandang",
        "lat": -5.1292689,
        "lng": 119.4816818
    },
    {
        "id": 45,
        "name": "UIN Siber Syekh Nurjati Cirebon",
        "lat": -6.7357667,
        "lng": 108.5322977
    },
    {
        "id": 46,
        "name": "Kampus 3 Universitas Widya Gama",
        "lat": -7.9370138,
        "lng": 112.6335457
    },
    {
        "id": 47,
        "name": "Universitas Borneo Tarakan",
        "lat": 3.3003507,
        "lng": 117.6456204
    },
    {
        "id": 48,
        "name": "Universitas Pertahanan Republik Indonesia",
        "lat": -6.5227124,
        "lng": 106.878446
    },
    {
        "id": 49,
        "name": "Pusat Pengembangan Strategi dan Diplomasi Kebahasaan",
        "lat": -6.5265863,
        "lng": 106.8809415
    },
    {
        "id": 50,
        "name": "Universitas Islam Negeri Maulana Malik Ibrahim Malang",
        "lat": -7.9510777,
        "lng": 112.6070169
    },
    {
        "id": 51,
        "name": "Ariyanti",
        "lat": -6.9050969,
        "lng": 107.5973817
    },
    {
        "id": 52,
        "name": "Ngurah Rai University",
        "lat": -8.6202136,
        "lng": 115.2353653
    },
    {
        "id": 53,
        "name": "Universitas Hang Tuah",
        "lat": -7.2933234,
        "lng": 112.7935303
    },
    {
        "id": 54,
        "name": "Universitas Udayana",
        "lat": -8.7947179,
        "lng": 115.172956
    },
    {
        "id": 55,
        "name": "Fakultas Teknik Universitas Hasanuddin",
        "lat": -5.2312757,
        "lng": 119.502156
    },
    {
        "id": 56,
        "name": "Universitas Jayabaya",
        "lat": -6.3536912,
        "lng": 106.8610249
    },
    {
        "id": 57,
        "name": "MBA ITB",
        "lat": -6.8944503,
        "lng": 107.6093502
    },
    {
        "id": 58,
        "name": "Universitas Yarsi",
        "lat": -6.1697082,
        "lng": 106.8697744
    },
    {
        "id": 59,
        "name": "Universitas MH Thamrin",
        "lat": -6.2876812,
        "lng": 106.8747584
    },
    {
        "id": 60,
        "name": "Universitas Borobudur",
        "lat": -6.2440356,
        "lng": 106.8977451
    },
    {
        "id": 61,
        "name": "Laboratorium Teknik Kimia",
        "lat": -7.7648396,
        "lng": 110.3716895
    },
    {
        "id": 62,
        "name": "Laboratorium Teknik Mesin",
        "lat": -7.7656712,
        "lng": 110.370508
    },
    {
        "id": 63,
        "name": "Universitas Budi Luhur",
        "lat": -6.1993629,
        "lng": 106.8532034
    },
    {
        "id": 64,
        "name": "Universitas Persada Indonesia Fakultas Teknik UPI YAI",
        "lat": -6.1928055,
        "lng": 106.8491505
    },
    {
        "id": 65,
        "name": "Gedung St. Don Bosko UAJY",
        "lat": -7.7809571,
        "lng": 110.4147506
    },
    {
        "id": 66,
        "name": "Kampus II UAJY Gedung St. Thomas Aquinas",
        "lat": -7.7804691,
        "lng": 110.4136979
    },
    {
        "id": 67,
        "name": "Universitas Atma Jaya Yogyakarta - Kampus 3",
        "lat": -7.7794762,
        "lng": 110.4157129
    },
    {
        "id": 68,
        "name": "Akademi Kebidanan Yogyakarta",
        "lat": -7.8497174,
        "lng": 110.3576477
    },
    {
        "id": 69,
        "name": "B27",
        "lat": -7.7762408,
        "lng": 110.3823303
    },
    {
        "id": 70,
        "name": "Pasca Sarjana Hukum UII",
        "lat": -7.7821884,
        "lng": 110.3748542
    },
    {
        "id": 71,
        "name": "Universitas Cokroaminoto Yogyakarta",
        "lat": -7.8196135,
        "lng": 110.3929076
    },
    {
        "id": 72,
        "name": "Gedung Dekanat Fak. Pertanian UPNVY",
        "lat": -7.7625606,
        "lng": 110.4106287
    },
    {
        "id": 73,
        "name": "Gedung UKM UPNVY",
        "lat": -7.7631435,
        "lng": 110.4074368
    },
    {
        "id": 74,
        "name": "Gedung Jurusan Teknik Kimia-FTI UPNVY",
        "lat": -7.7631876,
        "lng": 110.4110122
    },
    {
        "id": 75,
        "name": "Gedung Teknik Pertambangan Fakultas Teknologi MIneral UPN \"VETERAN\" Yogyakarta",
        "lat": -7.7628273,
        "lng": 110.4100722
    },
    {
        "id": 76,
        "name": "Gedung Prodi Teknik Geologi-FTM UPNVY",
        "lat": -7.7631537,
        "lng": 110.4099817
    },
    {
        "id": 77,
        "name": "Gedung Perpustakaan Pusat",
        "lat": -7.7618513,
        "lng": 110.4100581
    },
    {
        "id": 78,
        "name": "Dekanat Fak. Ekonomi UPNVY",
        "lat": -7.7622335,
        "lng": 110.4081319
    },
    {
        "id": 79,
        "name": "Prodi Akuntansi-FE UPNVY",
        "lat": -7.7622614,
        "lng": 110.4077228
    },
    {
        "id": 80,
        "name": "Gedung Dekanat Fak. Teknologi Mineral UPNVY",
        "lat": -7.763556,
        "lng": 110.4103158
    },
    {
        "id": 81,
        "name": "Gedung Prodi Teknik Perminyakan-FTM UPNVY",
        "lat": -7.7634457,
        "lng": 110.4097824
    },
    {
        "id": 82,
        "name": "Gedung Prodi Agribisnis-FP UPNVY",
        "lat": -7.7623151,
        "lng": 110.4107495
    },
    {
        "id": 83,
        "name": "Gedung Rektorat",
        "lat": -7.7621447,
        "lng": 110.4092783
    },
    {
        "id": 84,
        "name": "Gedung Prodi Agroteknologi-FP UPNVY",
        "lat": -7.7619257,
        "lng": 110.4108336
    },
    {
        "id": 85,
        "name": "Gedung Prodi Ekonomi Pembangunan-FE UPNVY",
        "lat": -7.7627978,
        "lng": 110.4077915
    },
    {
        "id": 86,
        "name": "Prodi Manajemen-FE UPNVY",
        "lat": -7.7626535,
        "lng": 110.4084214
    },
    {
        "id": 87,
        "name": "Rumah Dinas UPNVY",
        "lat": -7.7635989,
        "lng": 110.4092287
    },
    {
        "id": 88,
        "name": "Institut Seni Indonesia Yogyakarta",
        "lat": -7.851855,
        "lng": 110.3561044
    },
    {
        "id": 89,
        "name": "Universitas MH Thamrin Kampus AKA",
        "lat": -6.2404179,
        "lng": 106.8175521
    },
    {
        "id": 90,
        "name": "Universitas Sriwijaya",
        "lat": -2.9856263,
        "lng": 104.7327733
    },
    {
        "id": 91,
        "name": "Magister Management Untan",
        "lat": -0.0489712,
        "lng": 109.3547761
    },
    {
        "id": 92,
        "name": "Gedung FT UNP",
        "lat": -0.8985473,
        "lng": 100.349259
    },
    {
        "id": 93,
        "name": "Gedung Kuliah FIK UNP",
        "lat": -0.8978623,
        "lng": 100.3465106
    },
    {
        "id": 94,
        "name": "Rektorat Universitas Negeri Padang",
        "lat": -0.8971047,
        "lng": 100.3498721
    },
    {
        "id": 95,
        "name": "Gedung FT UNP",
        "lat": -0.8990696,
        "lng": 100.3492026
    },
    {
        "id": 96,
        "name": "Unnamed Campus",
        "lat": -8.5033643,
        "lng": 118.3157683
    },
    {
        "id": 97,
        "name": "Universitas PGRI Sumatera Barat",
        "lat": -0.9098981,
        "lng": 100.367896
    },
    {
        "id": 98,
        "name": "Universitas PGRI Sumatera Barat",
        "lat": -0.9096607,
        "lng": 100.3673769
    },
    {
        "id": 99,
        "name": "Universitas PGRI Sumatera Barat",
        "lat": -0.9095763,
        "lng": 100.3676685
    },
    {
        "id": 100,
        "name": "Universitas PGRI Sumatera Barat",
        "lat": -0.9100311,
        "lng": 100.3675054
    },
    {
        "id": 101,
        "name": "Kampus Akbid Poltekes Negri",
        "lat": -0.913682,
        "lng": 100.3674738
    },
    {
        "id": 102,
        "name": "APIKES IRIS",
        "lat": -0.9098546,
        "lng": 100.3640736
    },
    {
        "id": 103,
        "name": "Stie Yapis",
        "lat": -8.5286412,
        "lng": 118.4638174
    },
    {
        "id": 104,
        "name": "Universitas Nusa Cendana (Lama)",
        "lat": -10.1828517,
        "lng": 123.6013186
    },
    {
        "id": 105,
        "name": "UNIKA",
        "lat": -10.1598189,
        "lng": 123.5860541
    },
    {
        "id": 106,
        "name": "Fakultas Hukum Universitas Atma Jaya Yogyakarta (UAJY)",
        "lat": -7.7763215,
        "lng": 110.3926699
    },
    {
        "id": 107,
        "name": "REGISTER BUNGHATTA",
        "lat": -0.9097409,
        "lng": 100.3555584
    },
    {
        "id": 108,
        "name": "Universitas Bung Hatta",
        "lat": -0.9064887,
        "lng": 100.3436195
    },
    {
        "id": 109,
        "name": "Unnamed Campus",
        "lat": 1.563476,
        "lng": 125.1724576
    },
    {
        "id": 110,
        "name": "Institut Pengembangan Manajemen Indonesia",
        "lat": -6.2574428,
        "lng": 106.8548661
    },
    {
        "id": 111,
        "name": "Gedung MKU UNP",
        "lat": -0.8941628,
        "lng": 100.3479492
    },
    {
        "id": 112,
        "name": "Universitas Gajayana",
        "lat": -7.9400948,
        "lng": 112.6025446
    },
    {
        "id": 113,
        "name": "Fakultas Kedokteran UNAND",
        "lat": -0.9407582,
        "lng": 100.3666625
    },
    {
        "id": 114,
        "name": "Fakultas Hukum UNAND",
        "lat": -0.9537001,
        "lng": 100.3543269
    },
    {
        "id": 115,
        "name": "Universitas Pakuan",
        "lat": -6.5996533,
        "lng": 106.8117706
    },
    {
        "id": 116,
        "name": "Kampus IPB Baranangsiang",
        "lat": -6.6011038,
        "lng": 106.8068818
    },
    {
        "id": 117,
        "name": "Fakultas Ekonomi Program Ekstensi UNAND",
        "lat": -0.9369345,
        "lng": 100.3653623
    },
    {
        "id": 118,
        "name": "Fakultas Kedokteran Gigi UNAND",
        "lat": -0.937424,
        "lng": 100.365393
    },
    {
        "id": 119,
        "name": "Unnamed Campus",
        "lat": -0.8961015,
        "lng": 100.3471769
    },
    {
        "id": 120,
        "name": "FMIPA",
        "lat": -0.8956093,
        "lng": 100.3472624
    },
    {
        "id": 121,
        "name": "Asrama Baru UNP",
        "lat": -0.894333,
        "lng": 100.3499079
    },
    {
        "id": 122,
        "name": "UNIVERSITAS PRAYOGA",
        "lat": -0.941942,
        "lng": 100.3555247
    },
    {
        "id": 123,
        "name": "Universitas Nusa Nipa",
        "lat": -8.6265335,
        "lng": 122.2227405
    },
    {
        "id": 124,
        "name": "Unnamed Campus",
        "lat": -8.6261464,
        "lng": 122.2228121
    },
    {
        "id": 125,
        "name": "Sekolah Tinggi Pariwisata Bandung",
        "lat": -6.8690826,
        "lng": 107.5946631
    },
    {
        "id": 126,
        "name": "Universitas Pasundan (UNPAS) Kampus IV",
        "lat": -6.8663354,
        "lng": 107.5929064
    },
    {
        "id": 127,
        "name": "Universitas Kristen Maranatha",
        "lat": -6.8866277,
        "lng": 107.5804421
    },
    {
        "id": 128,
        "name": "Telkom Corporate University",
        "lat": -6.8718372,
        "lng": 107.5884248
    },
    {
        "id": 129,
        "name": "Universitas Negeri Jakarta",
        "lat": -6.1919309,
        "lng": 106.8878987
    },
    {
        "id": 130,
        "name": "STBA Yapari Aba",
        "lat": -6.8921749,
        "lng": 107.6046065
    },
    {
        "id": 131,
        "name": "Politeknik Negeri Bandung (POLBAN)",
        "lat": -6.8713847,
        "lng": 107.5729732
    },
    {
        "id": 132,
        "name": "Fakultas Ekonomi UNP",
        "lat": -0.8954949,
        "lng": 100.3496298
    },
    {
        "id": 133,
        "name": "Pusat Kegiatan Mahasiswa UNP",
        "lat": -0.8959652,
        "lng": 100.3499881
    },
    {
        "id": 134,
        "name": "Badan Eksekutif Mahasiswa UNP",
        "lat": -0.8960609,
        "lng": 100.3496902
    },
    {
        "id": 135,
        "name": "Gedung Dekan FIS UNP",
        "lat": -0.8961573,
        "lng": 100.3509218
    },
    {
        "id": 136,
        "name": "Gedung Pascasarjana UNP",
        "lat": -0.8963993,
        "lng": 100.3493558
    },
    {
        "id": 137,
        "name": "Program Magister Manajemen UNP",
        "lat": -0.8958565,
        "lng": 100.3494522
    },
    {
        "id": 138,
        "name": "Dharma Andalas Pliteknik Unand ( TDK LAYAK )",
        "lat": -0.9067043,
        "lng": 100.3553931
    },
    {
        "id": 139,
        "name": "Institut STIAMI",
        "lat": -6.1769802,
        "lng": 106.8582787
    },
    {
        "id": 140,
        "name": "Labor Fisika",
        "lat": -0.8950926,
        "lng": 100.3467308
    },
    {
        "id": 141,
        "name": "Gedung FMIPA (Biologi)",
        "lat": -0.8950981,
        "lng": 100.3470966
    },
    {
        "id": 142,
        "name": "PASCA SARJANA UNES",
        "lat": -0.9420953,
        "lng": 100.355914
    },
    {
        "id": 143,
        "name": "Kampus Kejaksaan",
        "lat": -6.3110267,
        "lng": 106.8918297
    },
    {
        "id": 144,
        "name": "Institut Pembina Rohani Islam Jakarta (IPRIJA)",
        "lat": -6.3442039,
        "lng": 106.885139
    },
    {
        "id": 145,
        "name": "Universitas Darma Persada",
        "lat": -6.2296379,
        "lng": 106.9242072
    },
    {
        "id": 146,
        "name": "Universitas Dirgantara Marsekal Suryadarma",
        "lat": -6.2626433,
        "lng": 106.888143
    },
    {
        "id": 147,
        "name": "Universitas Widya Mataram",
        "lat": -7.8066933,
        "lng": 110.3583641
    },
    {
        "id": 148,
        "name": "Unnamed Campus",
        "lat": -8.4719323,
        "lng": 118.3069896
    },
    {
        "id": 149,
        "name": "Unnamed Campus",
        "lat": -8.469059,
        "lng": 118.302949
    },
    {
        "id": 150,
        "name": "Universitas Wira Wacana",
        "lat": -9.6560377,
        "lng": 120.2723112
    },
    {
        "id": 151,
        "name": "Universitas Mercu Buana",
        "lat": -6.2096282,
        "lng": 106.739124
    },
    {
        "id": 152,
        "name": "Kampus Gunadarma",
        "lat": -6.1344656,
        "lng": 106.7333604
    },
    {
        "id": 153,
        "name": "Fakultas Kedokteran Ukrida",
        "lat": -6.1852206,
        "lng": 106.7801037
    },
    {
        "id": 154,
        "name": "Universitas Esa Unggul",
        "lat": -6.1857249,
        "lng": 106.7788718
    },
    {
        "id": 155,
        "name": "Universitas Islam At Tahiriyah",
        "lat": -6.2241963,
        "lng": 106.8599387
    },
    {
        "id": 156,
        "name": "Pasca Sarjana Universitas Brawijaya",
        "lat": -6.2059428,
        "lng": 106.8334817
    },
    {
        "id": 157,
        "name": "Universitas Negeri Jakarta Kampus D Psikologi",
        "lat": -6.2057062,
        "lng": 106.8335346
    },
    {
        "id": 158,
        "name": "Universitas Krisanti Widya Mandiri",
        "lat": -6.2234848,
        "lng": 106.8623388
    },
    {
        "id": 159,
        "name": "BRI Corporate University",
        "lat": -6.3026686,
        "lng": 106.821825
    },
    {
        "id": 160,
        "name": "Universitas Trilogi",
        "lat": -6.2530881,
        "lng": 106.8490518
    },
    {
        "id": 161,
        "name": "Universitas Nasional",
        "lat": -6.2812874,
        "lng": 106.839328
    },
    {
        "id": 162,
        "name": "Universitas Negeri Jakarta",
        "lat": -6.194796,
        "lng": 106.8786505
    },
    {
        "id": 163,
        "name": "Universitas Terbuka",
        "lat": -8.1664236,
        "lng": 113.7264336
    },
    {
        "id": 164,
        "name": "Gedung Rektorat",
        "lat": -8.1653665,
        "lng": 113.7168532
    },
    {
        "id": 165,
        "name": "Universitas Pakuan Fakultas Teknik",
        "lat": -6.5988343,
        "lng": 106.8096988
    },
    {
        "id": 166,
        "name": "Unnamed Campus",
        "lat": 1.4585336,
        "lng": 124.806376
    },
    {
        "id": 167,
        "name": "Unnamed Campus",
        "lat": -8.5498544,
        "lng": 118.4314793
    },
    {
        "id": 168,
        "name": "Universitas Trisakti",
        "lat": -6.5648228,
        "lng": 106.8556734
    },
    {
        "id": 169,
        "name": "Universitas Pamulang",
        "lat": -6.3444838,
        "lng": 106.7370504
    },
    {
        "id": 170,
        "name": "Kampus III UM",
        "lat": -8.0947817,
        "lng": 112.1714813
    },
    {
        "id": 171,
        "name": "STIE YKPN",
        "lat": -7.7693166,
        "lng": 110.4109613
    },
    {
        "id": 172,
        "name": "STIM YKPN",
        "lat": -7.7381413,
        "lng": 110.3767515
    },
    {
        "id": 173,
        "name": "Skolastikat SCJ (Sacro Corde Jesu)",
        "lat": -7.7424446,
        "lng": 110.3912247
    },
    {
        "id": 174,
        "name": "UBS Business School",
        "lat": -6.2855246,
        "lng": 106.7961255
    },
    {
        "id": 175,
        "name": "Universitas Multimedia Nusantara",
        "lat": -6.2577238,
        "lng": 106.6182535
    },
    {
        "id": 176,
        "name": "Bina Sarana Informatika Bogor",
        "lat": -6.5836106,
        "lng": 106.788264
    },
    {
        "id": 177,
        "name": "Unnamed Campus",
        "lat": -6.5207859,
        "lng": 106.7598204
    },
    {
        "id": 178,
        "name": "Politeknik Darussalam Palembang",
        "lat": -2.9598979,
        "lng": 104.7398791
    },
    {
        "id": 179,
        "name": "STAI YPIQ",
        "lat": -5.4563507,
        "lng": 122.6068045
    },
    {
        "id": 180,
        "name": "Universitas Dayanu Ikhsanuddin",
        "lat": -5.455669,
        "lng": 122.6066527
    },
    {
        "id": 181,
        "name": "Pompes Hamzan Wadi",
        "lat": -8.4787433,
        "lng": 118.2990092
    },
    {
        "id": 182,
        "name": "AMIK Millan Dharma",
        "lat": -5.4632731,
        "lng": 122.5999913
    },
    {
        "id": 183,
        "name": "Universitas Muhammadiyah Buton (Kampus 1)",
        "lat": -5.4629791,
        "lng": 122.5992806
    },
    {
        "id": 184,
        "name": "Universitas Muhammadiyah Buton (Kampus 2)",
        "lat": -5.4629169,
        "lng": 122.5997996
    },
    {
        "id": 185,
        "name": "kampus unw K:LU",
        "lat": -8.3546548,
        "lng": 116.1690992
    },
    {
        "id": 186,
        "name": "kampus unw K:LU",
        "lat": -8.3545441,
        "lng": 116.1692407
    },
    {
        "id": 187,
        "name": "Universitas Muhamadiyah Mataram",
        "lat": -8.6040037,
        "lng": 116.1038825
    },
    {
        "id": 188,
        "name": "Komplek Universitas Mataram",
        "lat": -8.5851117,
        "lng": 116.0941901
    },
    {
        "id": 189,
        "name": "FK FKG UMS",
        "lat": -7.5692905,
        "lng": 110.8061175
    },
    {
        "id": 190,
        "name": "Politeknik Swadharma",
        "lat": -6.3462904,
        "lng": 106.7510605
    },
    {
        "id": 191,
        "name": "UNIV NW MATARAM",
        "lat": -8.583337,
        "lng": 116.0997082
    },
    {
        "id": 192,
        "name": "Unnamed Campus",
        "lat": -8.5822377,
        "lng": 116.0943549
    },
    {
        "id": 193,
        "name": "Unnamed Campus",
        "lat": -8.5844049,
        "lng": 116.0895762
    },
    {
        "id": 194,
        "name": "Unnamed Campus",
        "lat": -8.5883092,
        "lng": 116.0944343
    },
    {
        "id": 195,
        "name": "Unnamed Campus",
        "lat": -8.5884878,
        "lng": 116.0946081
    },
    {
        "id": 196,
        "name": "Unnamed Campus",
        "lat": -8.5884159,
        "lng": 116.0948396
    },
    {
        "id": 197,
        "name": "Unnamed Campus",
        "lat": -8.5881585,
        "lng": 116.0953609
    },
    {
        "id": 198,
        "name": "Unnamed Campus",
        "lat": -8.5884472,
        "lng": 116.0956058
    },
    {
        "id": 199,
        "name": "Unnamed Campus",
        "lat": -8.5882689,
        "lng": 116.0959492
    },
    {
        "id": 200,
        "name": "Unnamed Campus",
        "lat": -8.5876489,
        "lng": 116.0973848
    },
    {
        "id": 201,
        "name": "Unnamed Campus",
        "lat": -8.5882753,
        "lng": 116.0968179
    },
    {
        "id": 202,
        "name": "Unnamed Campus",
        "lat": -8.5875962,
        "lng": 116.0970591
    },
    {
        "id": 203,
        "name": "Unnamed Campus",
        "lat": -8.5878938,
        "lng": 116.0965548
    },
    {
        "id": 204,
        "name": "Unnamed Campus",
        "lat": -8.5880191,
        "lng": 116.0971498
    },
    {
        "id": 205,
        "name": "Gedung A (Fakultas Teknik)",
        "lat": -8.5871602,
        "lng": 116.0972766
    },
    {
        "id": 206,
        "name": "Unnamed Campus",
        "lat": -8.5869338,
        "lng": 116.0962176
    },
    {
        "id": 207,
        "name": "Unnamed Campus",
        "lat": -8.5866922,
        "lng": 116.0958853
    },
    {
        "id": 208,
        "name": "Unnamed Campus",
        "lat": -8.5867857,
        "lng": 116.0955261
    },
    {
        "id": 209,
        "name": "FAK KEGURUAN DAN PENDIDIKAN",
        "lat": -8.5862923,
        "lng": 116.0909499
    },
    {
        "id": 210,
        "name": "Unnamed Campus",
        "lat": -8.585529,
        "lng": 116.0911871
    },
    {
        "id": 211,
        "name": "Unnamed Campus",
        "lat": -8.5858328,
        "lng": 116.0908619
    },
    {
        "id": 212,
        "name": "Unnamed Campus",
        "lat": -8.585706,
        "lng": 116.0907792
    },
    {
        "id": 213,
        "name": "Institut Teknologi Bandung",
        "lat": -6.8904916,
        "lng": 107.610451
    },
    {
        "id": 214,
        "name": "Universitas FKIP Unika",
        "lat": -10.1601551,
        "lng": 123.6182584
    },
    {
        "id": 215,
        "name": "Universitas Kristen Satya Wacana",
        "lat": -7.3191964,
        "lng": 110.4995308
    },
    {
        "id": 216,
        "name": "Gedung Rektorat UKAW Kupang",
        "lat": -10.149151,
        "lng": 123.6535086
    },
    {
        "id": 217,
        "name": "STITA",
        "lat": -8.3240854,
        "lng": 116.1936436
    },
    {
        "id": 218,
        "name": "Pompes Fadilatul Islamiyah",
        "lat": -8.4859221,
        "lng": 118.3149061
    },
    {
        "id": 219,
        "name": "STIH",
        "lat": -0.8637541,
        "lng": 134.0508024
    },
    {
        "id": 220,
        "name": "STH GARUT",
        "lat": -7.1902884,
        "lng": 107.9039145
    },
    {
        "id": 221,
        "name": "Sekolah Tinggi Ilmu Ekonomi Amkop Makassar",
        "lat": -5.1569822,
        "lng": 119.4519554
    },
    {
        "id": 222,
        "name": "Unnamed Campus",
        "lat": -5.1886359,
        "lng": 119.4153855
    },
    {
        "id": 223,
        "name": "pancasakti",
        "lat": -5.1681291,
        "lng": 119.4139143
    },
    {
        "id": 224,
        "name": "Gedung Pertemuan Alumni",
        "lat": -5.1365926,
        "lng": 119.4888732
    },
    {
        "id": 225,
        "name": "Kampus 1 UIT",
        "lat": -5.1573456,
        "lng": 119.4327387
    },
    {
        "id": 226,
        "name": "Kampus 3 UIT",
        "lat": -5.1584992,
        "lng": 119.4334052
    },
    {
        "id": 227,
        "name": "Kampus 2 UIT",
        "lat": -5.1576183,
        "lng": 119.4334159
    },
    {
        "id": 228,
        "name": "Kampus 4 UIT",
        "lat": -5.1577472,
        "lng": 119.4321768
    },
    {
        "id": 229,
        "name": "BP2IP Makassar",
        "lat": -5.1214091,
        "lng": 119.4171697
    },
    {
        "id": 230,
        "name": "Universitas Negeri Yogyakarta",
        "lat": -7.7730098,
        "lng": 110.3854704
    },
    {
        "id": 231,
        "name": "Unnamed Campus",
        "lat": -7.4011577,
        "lng": 109.2459262
    },
    {
        "id": 232,
        "name": "Jenderal Soedirman University",
        "lat": -7.4083575,
        "lng": 109.2533178
    },
    {
        "id": 233,
        "name": "General Sudirman University Kalibakal Campus",
        "lat": -7.430249,
        "lng": 109.2551041
    },
    {
        "id": 234,
        "name": "UIN Datokarama Palu",
        "lat": -0.8850827,
        "lng": 119.8457
    },
    {
        "id": 235,
        "name": "Unnamed Campus",
        "lat": -5.1679052,
        "lng": 119.4330341
    },
    {
        "id": 236,
        "name": "SEKOLAH TINGGI ILMU SOSIAL DAN ILMU POLITIK ( STISIPOL 17 AGUSTUS 1945) MAKASAR",
        "lat": -5.1587455,
        "lng": 119.4361163
    },
    {
        "id": 237,
        "name": "STIBA",
        "lat": -5.1625907,
        "lng": 119.5082388
    },
    {
        "id": 238,
        "name": "Akbid MInasaupa",
        "lat": -5.1753002,
        "lng": 119.4637713
    },
    {
        "id": 239,
        "name": "ATIM",
        "lat": -5.1191094,
        "lng": 119.4312412
    },
    {
        "id": 240,
        "name": "Pusat Bahasa Mandarin UNHAS",
        "lat": -5.121646,
        "lng": 119.4298433
    },
    {
        "id": 241,
        "name": "Universitas Pejuang Republik Indonesia - Kampus I",
        "lat": -5.1353335,
        "lng": 119.4206796
    },
    {
        "id": 242,
        "name": "Universitas Pepabri Makassar",
        "lat": -5.1474126,
        "lng": 119.4205066
    },
    {
        "id": 243,
        "name": "POLTEKKES PENDIDIKAN KEBIDANAN",
        "lat": -5.160656,
        "lng": 119.4287105
    },
    {
        "id": 244,
        "name": "Unnamed Campus",
        "lat": -8.4723866,
        "lng": 118.7451202
    },
    {
        "id": 245,
        "name": "Jenderal Soedirman University",
        "lat": -7.4033989,
        "lng": 109.2471976
    },
    {
        "id": 246,
        "name": "Universitas Lumajang",
        "lat": -8.1218096,
        "lng": 113.2339336
    },
    {
        "id": 247,
        "name": "Program Magister dan Doktor UNHAS Fak. Ekonomi",
        "lat": -5.1292873,
        "lng": 119.4245286
    },
    {
        "id": 248,
        "name": "Unnamed Campus",
        "lat": -5.0833248,
        "lng": 119.5303205
    },
    {
        "id": 249,
        "name": "Unnamed Campus",
        "lat": -5.0828398,
        "lng": 119.5302777
    },
    {
        "id": 250,
        "name": "Unnamed Campus",
        "lat": -5.0829965,
        "lng": 119.5299025
    },
    {
        "id": 251,
        "name": "Unnamed Campus",
        "lat": -5.0831637,
        "lng": 119.5301103
    },
    {
        "id": 252,
        "name": "Unnamed Campus",
        "lat": -5.0827393,
        "lng": 119.5298114
    },
    {
        "id": 253,
        "name": "Unnamed Campus",
        "lat": -5.0826155,
        "lng": 119.5296533
    },
    {
        "id": 254,
        "name": "kAMPUS PURTRI PESANTREN PONDOK MADINAH",
        "lat": -5.0831069,
        "lng": 119.5303437
    },
    {
        "id": 255,
        "name": "Unnamed Campus",
        "lat": -5.0828334,
        "lng": 119.5299381
    },
    {
        "id": 256,
        "name": "Universitas Negeri Makassar Fakultas Ilmu Sosial",
        "lat": -5.1385977,
        "lng": 119.4099419
    },
    {
        "id": 257,
        "name": "STIKS Tamalanrea Makassar",
        "lat": -5.1376525,
        "lng": 119.4126715
    },
    {
        "id": 258,
        "name": "Akademi Kesehatan Muhammadiyah Makassar",
        "lat": -5.1639074,
        "lng": 119.4186921
    },
    {
        "id": 259,
        "name": "Kampus YAPMA",
        "lat": -5.1376839,
        "lng": 119.4369838
    },
    {
        "id": 260,
        "name": "Universitas Sawerigading",
        "lat": -5.1288933,
        "lng": 119.4229344
    },
    {
        "id": 261,
        "name": "Universitas Terbuka",
        "lat": -7.4027039,
        "lng": 109.246922
    },
    {
        "id": 262,
        "name": "Universitas Patria Artha",
        "lat": -5.1557321,
        "lng": 119.4427565
    },
    {
        "id": 263,
        "name": "STIKES Graha Edukasi Makassar",
        "lat": -5.124296,
        "lng": 119.5035058
    },
    {
        "id": 264,
        "name": "STIE AMKOP",
        "lat": -5.1581324,
        "lng": 119.452531
    },
    {
        "id": 265,
        "name": "Pasca Sarja Uki Paulus",
        "lat": -5.1531049,
        "lng": 119.4137186
    },
    {
        "id": 266,
        "name": "SDN Inpres Mariso 3",
        "lat": -5.1580378,
        "lng": 119.407002
    },
    {
        "id": 267,
        "name": "Fakultas Kedokteran Gigi Universitas Muslim Indonesia",
        "lat": -5.1620188,
        "lng": 119.4153709
    },
    {
        "id": 268,
        "name": "Gedung Pusat Kegiatan Mahasiswa (PKM)",
        "lat": -0.9170408,
        "lng": 100.455019
    },
    {
        "id": 269,
        "name": "Fakultas Pertanian",
        "lat": -0.9114387,
        "lng": 100.4601703
    },
    {
        "id": 270,
        "name": "Fakultas MIPA",
        "lat": -0.9107566,
        "lng": 100.4612891
    },
    {
        "id": 271,
        "name": "Fakultas Peternakan",
        "lat": -0.9122999,
        "lng": 100.4591536
    },
    {
        "id": 272,
        "name": "Pool Bus Kampus",
        "lat": -0.9165567,
        "lng": 100.4629862
    },
    {
        "id": 273,
        "name": "Fakultas Ilmu Budaya",
        "lat": -0.9165528,
        "lng": 100.4609465
    },
    {
        "id": 274,
        "name": "Fakultas ISIP",
        "lat": -0.9169603,
        "lng": 100.4601585
    },
    {
        "id": 275,
        "name": "Fakultas Farmasi",
        "lat": -0.9147967,
        "lng": 100.461901
    },
    {
        "id": 276,
        "name": "Unnamed Campus",
        "lat": -8.5818091,
        "lng": 116.0917943
    },
    {
        "id": 277,
        "name": "Pesisir dan Laut",
        "lat": -8.5822898,
        "lng": 116.0924105
    },
    {
        "id": 278,
        "name": "arena budaya",
        "lat": -8.5826507,
        "lng": 116.0922573
    },
    {
        "id": 279,
        "name": "Unnamed Campus",
        "lat": -8.5826474,
        "lng": 116.0916874
    },
    {
        "id": 280,
        "name": "Unnamed Campus",
        "lat": -8.5823275,
        "lng": 116.0921733
    },
    {
        "id": 281,
        "name": "Fakultas MIPA UNRAM",
        "lat": -8.5868854,
        "lng": 116.0937588
    },
    {
        "id": 282,
        "name": "Unnamed Campus",
        "lat": -8.5874933,
        "lng": 116.0949152
    },
    {
        "id": 283,
        "name": "Unnamed Campus",
        "lat": -8.5874038,
        "lng": 116.0944561
    },
    {
        "id": 284,
        "name": "Unnamed Campus",
        "lat": -8.5872935,
        "lng": 116.0936687
    },
    {
        "id": 285,
        "name": "Fakultas Perternakan UNRAM",
        "lat": -8.5872128,
        "lng": 116.0947339
    },
    {
        "id": 286,
        "name": "Unnamed Campus",
        "lat": -8.5869305,
        "lng": 116.0942145
    },
    {
        "id": 287,
        "name": "Unnamed Campus",
        "lat": -8.5881182,
        "lng": 116.0950094
    },
    {
        "id": 288,
        "name": "Unnamed Campus",
        "lat": -8.5874741,
        "lng": 116.0939929
    },
    {
        "id": 289,
        "name": "Unnamed Campus",
        "lat": -8.5869944,
        "lng": 116.0950172
    },
    {
        "id": 290,
        "name": "Unnamed Campus",
        "lat": -8.5827817,
        "lng": 116.0932977
    },
    {
        "id": 291,
        "name": "Unnamed Campus",
        "lat": -8.5828904,
        "lng": 116.0931713
    },
    {
        "id": 292,
        "name": "Unnamed Campus",
        "lat": -8.5826467,
        "lng": 116.092934
    },
    {
        "id": 293,
        "name": "Unnamed Campus",
        "lat": -8.5819471,
        "lng": 116.0937059
    },
    {
        "id": 294,
        "name": "Unnamed Campus",
        "lat": -8.5827991,
        "lng": 116.093021
    },
    {
        "id": 295,
        "name": "Unnamed Campus",
        "lat": -8.5828337,
        "lng": 116.0928969
    },
    {
        "id": 296,
        "name": "Unnamed Campus",
        "lat": -8.5873449,
        "lng": 116.0962922
    },
    {
        "id": 297,
        "name": "Unnamed Campus",
        "lat": -8.5821299,
        "lng": 116.0928674
    },
    {
        "id": 298,
        "name": "Unnamed Campus",
        "lat": -8.5820783,
        "lng": 116.0934966
    },
    {
        "id": 299,
        "name": "Unnamed Campus",
        "lat": -8.582537,
        "lng": 116.0927145
    },
    {
        "id": 300,
        "name": "Unnamed Campus",
        "lat": -8.5830901,
        "lng": 116.0931662
    },
    {
        "id": 301,
        "name": "Unnamed Campus",
        "lat": -8.5828534,
        "lng": 116.092745
    },
    {
        "id": 302,
        "name": "Unnamed Campus",
        "lat": -8.5828662,
        "lng": 116.093401
    },
    {
        "id": 303,
        "name": "Gaharu",
        "lat": -8.581978,
        "lng": 116.0928932
    },
    {
        "id": 304,
        "name": "Unnamed Campus",
        "lat": -8.5830326,
        "lng": 116.0930851
    },
    {
        "id": 305,
        "name": "Unnamed Campus",
        "lat": -8.5817506,
        "lng": 116.0934654
    },
    {
        "id": 306,
        "name": "Unnamed Campus",
        "lat": -8.5823382,
        "lng": 116.0927932
    },
    {
        "id": 307,
        "name": "Unnamed Campus",
        "lat": -8.5830056,
        "lng": 116.0933073
    },
    {
        "id": 308,
        "name": "Unnamed Campus",
        "lat": -8.5824259,
        "lng": 116.0929558
    },
    {
        "id": 309,
        "name": "Unnamed Campus",
        "lat": -8.5818389,
        "lng": 116.0932507
    },
    {
        "id": 310,
        "name": "Budi Daya Pertanian",
        "lat": -8.5823547,
        "lng": 116.0932675
    },
    {
        "id": 311,
        "name": "Unnamed Campus",
        "lat": -8.5820058,
        "lng": 116.0930417
    },
    {
        "id": 312,
        "name": "Unnamed Campus",
        "lat": -8.5829496,
        "lng": 116.0929721
    },
    {
        "id": 313,
        "name": "Universitas Ma Chung",
        "lat": -7.9569022,
        "lng": 112.5898114
    },
    {
        "id": 314,
        "name": "Kampus Prima",
        "lat": -4.1514149,
        "lng": 120.0385772
    },
    {
        "id": 315,
        "name": "Unnamed Campus",
        "lat": -8.4729017,
        "lng": 118.7620646
    },
    {
        "id": 316,
        "name": "Unnamed Campus",
        "lat": -8.4731499,
        "lng": 118.762317
    },
    {
        "id": 317,
        "name": "Unnamed Campus",
        "lat": -8.4726768,
        "lng": 118.7620352
    },
    {
        "id": 318,
        "name": "Universitas Jenderal Achmad Yani",
        "lat": -6.8885816,
        "lng": 107.5264975
    },
    {
        "id": 319,
        "name": "Wijayakusuma University",
        "lat": -7.3994878,
        "lng": 109.2163271
    },
    {
        "id": 320,
        "name": "UIN Profesor Kiai Haji Saifuddin Zuhri Purwokerto",
        "lat": -7.4113315,
        "lng": 109.2318824
    },
    {
        "id": 321,
        "name": "Dentistry Jenderal Sudirman University",
        "lat": -7.4302396,
        "lng": 109.2551261
    },
    {
        "id": 322,
        "name": "Universitas Muhammadiyah Jember",
        "lat": -8.1747548,
        "lng": 113.717712
    },
    {
        "id": 323,
        "name": "Unnamed Campus",
        "lat": -8.1741824,
        "lng": 113.7174874
    },
    {
        "id": 324,
        "name": "Unnamed Campus",
        "lat": -8.4724368,
        "lng": 118.7453335
    },
    {
        "id": 325,
        "name": "Unnamed Campus",
        "lat": -8.4727457,
        "lng": 118.7453486
    },
    {
        "id": 326,
        "name": "STIKES Muhammadiyah Lamongan",
        "lat": -7.1057352,
        "lng": 112.3896711
    },
    {
        "id": 327,
        "name": "STIKES Muhammadiyah Lamongan",
        "lat": -7.1058833,
        "lng": 112.3902682
    },
    {
        "id": 328,
        "name": "STIKES Muhammadiyah Lamongan",
        "lat": -7.1058414,
        "lng": 112.3901126
    },
    {
        "id": 329,
        "name": "STIKES Muhammadiyah Lamongan",
        "lat": -7.1058043,
        "lng": 112.3899485
    },
    {
        "id": 330,
        "name": "STIKES Muhammadiyah Lamongan",
        "lat": -7.1060085,
        "lng": 112.390772
    },
    {
        "id": 331,
        "name": "AKPER RAJEKWESI",
        "lat": -7.1447935,
        "lng": 111.8898901
    },
    {
        "id": 332,
        "name": "Universitas Lambung Mangkurat",
        "lat": -3.2961865,
        "lng": 114.5856093
    },
    {
        "id": 333,
        "name": "Politeknik Negeri Banjarmasin",
        "lat": -3.2958636,
        "lng": 114.5825107
    },
    {
        "id": 334,
        "name": "Lembaga Pengabdian Masyarakat UNEJ",
        "lat": -8.1620354,
        "lng": 113.7097825
    },
    {
        "id": 335,
        "name": "Universitas Jember",
        "lat": -8.1646026,
        "lng": 113.717893
    },
    {
        "id": 336,
        "name": "Institut Teknologi dan Sains Mandala",
        "lat": -8.1707251,
        "lng": 113.710843
    },
    {
        "id": 337,
        "name": "UIN KHAS Jember",
        "lat": -8.1967643,
        "lng": 113.6567546
    },
    {
        "id": 338,
        "name": "Gedung Kuliah Fisip Unsoed",
        "lat": -7.4016428,
        "lng": 109.2459266
    },
    {
        "id": 339,
        "name": "Language Center Unsoed",
        "lat": -7.4013295,
        "lng": 109.2482708
    },
    {
        "id": 340,
        "name": "Unnamed Campus",
        "lat": -7.4012737,
        "lng": 109.2479238
    },
    {
        "id": 341,
        "name": "Unnamed Campus",
        "lat": -7.4013263,
        "lng": 109.2481271
    },
    {
        "id": 342,
        "name": "Fakultas Kedokteran Universitas Jenderal Soedirman",
        "lat": -7.4346092,
        "lng": 109.2671265
    },
    {
        "id": 343,
        "name": "Dekanat FKIK",
        "lat": -7.4341889,
        "lng": 109.2677711
    },
    {
        "id": 344,
        "name": "STIKES TANAWALI TAKALAR",
        "lat": -5.4092638,
        "lng": 119.4467223
    },
    {
        "id": 345,
        "name": "STIKES TANAWALI TAKALAR",
        "lat": -5.4092296,
        "lng": 119.4471587
    },
    {
        "id": 346,
        "name": "STIKES TANAWALI TAKALAR",
        "lat": -5.4095057,
        "lng": 119.4466962
    },
    {
        "id": 347,
        "name": "UKM Fisip Unsoed",
        "lat": -7.4015499,
        "lng": 109.2468065
    },
    {
        "id": 348,
        "name": "Universitas Semarang",
        "lat": -6.9817112,
        "lng": 110.4523475
    },
    {
        "id": 349,
        "name": "UIN Maulana Malik Ibrahim (Malang)",
        "lat": -7.9065616,
        "lng": 112.5785201
    },
    {
        "id": 350,
        "name": "Universitas Islam 45",
        "lat": -6.2578185,
        "lng": 107.006337
    },
    {
        "id": 351,
        "name": "Binus University",
        "lat": -6.2288858,
        "lng": 106.7967702
    },
    {
        "id": 352,
        "name": "Binus ASO School of Engineering",
        "lat": -6.2407353,
        "lng": 106.6576197
    },
    {
        "id": 353,
        "name": "UNITA",
        "lat": -8.0903166,
        "lng": 111.9014724
    },
    {
        "id": 354,
        "name": "Fakultas Kedokteran Universitas Muhammadiyah Semarang",
        "lat": -7.0012311,
        "lng": 110.4276885
    },
    {
        "id": 355,
        "name": "Universitas Diponegoro",
        "lat": -6.9954938,
        "lng": 110.4258128
    },
    {
        "id": 356,
        "name": "Universitas Stikubank",
        "lat": -6.9884912,
        "lng": 110.4168404
    },
    {
        "id": 357,
        "name": "Politeknik TEDC Bandung",
        "lat": -6.8734603,
        "lng": 107.5621151
    },
    {
        "id": 358,
        "name": "Universitas Negeri Malang",
        "lat": -7.9615051,
        "lng": 112.6175645
    },
    {
        "id": 359,
        "name": "Universitas Mercubuana",
        "lat": -6.2773676,
        "lng": 106.8292462
    },
    {
        "id": 360,
        "name": "Universitas Muhammadiyah Bengkulu",
        "lat": -3.7860273,
        "lng": 102.2637878
    },
    {
        "id": 361,
        "name": "Universitas Bengkulu",
        "lat": -3.7586753,
        "lng": 102.2728892
    },
    {
        "id": 362,
        "name": "Universitas Dehasen",
        "lat": -3.7938241,
        "lng": 102.2777517
    },
    {
        "id": 363,
        "name": "Universitas Prof. DR. Hazairin SH",
        "lat": -3.7918447,
        "lng": 102.2574082
    },
    {
        "id": 364,
        "name": "GOR UNY Kampus Wates",
        "lat": -7.8548458,
        "lng": 110.1636784
    },
    {
        "id": 365,
        "name": "Asrama Mahasiswa UNY Kampus Wates",
        "lat": -7.8531455,
        "lng": 110.1648421
    },
    {
        "id": 366,
        "name": "STKIP Paracendekia NW Sumbawa",
        "lat": -8.5328274,
        "lng": 117.4481579
    },
    {
        "id": 367,
        "name": "Universitas Buddhi Dharma",
        "lat": -6.1869834,
        "lng": 106.6266612
    },
    {
        "id": 368,
        "name": "Universitas Ekonomi & Hukum Saraswati",
        "lat": -8.5879342,
        "lng": 116.1132072
    },
    {
        "id": 369,
        "name": "Institut Agama Islam Negeri Pontianak",
        "lat": -0.0389511,
        "lng": 109.3402894
    },
    {
        "id": 370,
        "name": "FKM",
        "lat": 1.4604779,
        "lng": 124.8294233
    },
    {
        "id": 371,
        "name": "Universitas",
        "lat": 1.4574831,
        "lng": 124.8279018
    },
    {
        "id": 372,
        "name": "Universitas Terbuka",
        "lat": -6.3407616,
        "lng": 106.7588275
    },
    {
        "id": 373,
        "name": "Faculty of Engineering",
        "lat": -0.91334,
        "lng": 100.4644036
    },
    {
        "id": 374,
        "name": "IAIN SMH Banten",
        "lat": -6.1216223,
        "lng": 106.1732686
    },
    {
        "id": 375,
        "name": "STIEM Bongaya Makassar",
        "lat": -5.1692974,
        "lng": 119.4171932
    },
    {
        "id": 376,
        "name": "Akademi Parawisata Makassar / Akademie f\u00fcr Tourismus Makassar",
        "lat": -5.1894661,
        "lng": 119.3939253
    },
    {
        "id": 377,
        "name": "Universitas Islam Makassar",
        "lat": -5.1408937,
        "lng": 119.4805054
    },
    {
        "id": 378,
        "name": "Universitas Islam Makassar",
        "lat": -5.1408581,
        "lng": 119.481115
    },
    {
        "id": 379,
        "name": "STIKES Mitra Bunda Persada",
        "lat": 1.1485928,
        "lng": 104.0169086
    },
    {
        "id": 380,
        "name": "Kampus 5 Fakultas Kedokteran Universitas Indonesia Timur",
        "lat": -5.1857493,
        "lng": 119.4128784
    },
    {
        "id": 381,
        "name": "Universitas Indonesia Timur",
        "lat": -5.1854079,
        "lng": 119.4132881
    },
    {
        "id": 382,
        "name": "Universitas Samawa",
        "lat": -8.5039174,
        "lng": 117.4085324
    },
    {
        "id": 383,
        "name": "Unnamed Campus",
        "lat": -8.5881508,
        "lng": 116.0938019
    },
    {
        "id": 384,
        "name": "Unnamed Campus",
        "lat": -8.5879244,
        "lng": 116.0940279
    },
    {
        "id": 385,
        "name": "Unnamed Campus",
        "lat": -8.5879381,
        "lng": 116.0947204
    },
    {
        "id": 386,
        "name": "Unnamed Campus",
        "lat": -8.5871805,
        "lng": 116.0954396
    },
    {
        "id": 387,
        "name": "Unnamed Campus",
        "lat": -8.5877277,
        "lng": 116.0956455
    },
    {
        "id": 388,
        "name": "Unnamed Campus",
        "lat": -8.5825414,
        "lng": 116.0912771
    },
    {
        "id": 389,
        "name": "Unnamed Campus",
        "lat": -8.5819305,
        "lng": 116.0924606
    },
    {
        "id": 390,
        "name": "Institut Desain & Bisnis Bali",
        "lat": -8.6806426,
        "lng": 115.2305061
    },
    {
        "id": 391,
        "name": "Universitas Sanata Dharma (Kampus III)",
        "lat": -7.7547786,
        "lng": 110.4217934
    },
    {
        "id": 392,
        "name": "Universitas Islam Makassar",
        "lat": -5.1408583,
        "lng": 119.4808374
    },
    {
        "id": 393,
        "name": "Universitas Islam Makassar",
        "lat": -5.1408961,
        "lng": 119.4807494
    },
    {
        "id": 394,
        "name": "Universitas Islam Makassar",
        "lat": -5.1409029,
        "lng": 119.4806575
    },
    {
        "id": 395,
        "name": "UKI PAULUS Makassar",
        "lat": -5.1195406,
        "lng": 119.5051869
    },
    {
        "id": 396,
        "name": "Universitas Singaperbangsa Karawang",
        "lat": -6.3226591,
        "lng": 107.3063006
    },
    {
        "id": 397,
        "name": "kampus V UMI",
        "lat": -5.1227354,
        "lng": 119.5099919
    },
    {
        "id": 398,
        "name": "Fakultas Ekonomi Universitas Tadulako",
        "lat": -0.831501,
        "lng": 119.897283
    },
    {
        "id": 399,
        "name": "Gedung JK Center of Technology",
        "lat": -5.2303146,
        "lng": 119.5016225
    },
    {
        "id": 400,
        "name": "Gedung JK Center of Scientific Activities",
        "lat": -5.230828,
        "lng": 119.5020915
    },
    {
        "id": 401,
        "name": "FT Unhas",
        "lat": -5.2308706,
        "lng": 119.5001913
    },
    {
        "id": 402,
        "name": "Laboratorium Dasar",
        "lat": -7.127125,
        "lng": 112.7221538
    },
    {
        "id": 403,
        "name": "Ruang Kuliah Bersama A",
        "lat": -7.1297657,
        "lng": 112.7232197
    },
    {
        "id": 404,
        "name": "Fakultas Hukum",
        "lat": -7.1277069,
        "lng": 112.7238253
    },
    {
        "id": 405,
        "name": "Gedung fakultas Teknik",
        "lat": -7.1285581,
        "lng": 112.7233255
    },
    {
        "id": 406,
        "name": "Parkir Bus Kampus",
        "lat": -7.1268647,
        "lng": 112.72367
    },
    {
        "id": 407,
        "name": "Fakultas Ilmu Sosial dan Budaya",
        "lat": -7.1267959,
        "lng": 112.7227411
    },
    {
        "id": 408,
        "name": "sosiologi",
        "lat": -7.1264524,
        "lng": 112.7227514
    },
    {
        "id": 409,
        "name": "Laboratorium Komputer dan KWU",
        "lat": -7.1274307,
        "lng": 112.7219188
    },
    {
        "id": 410,
        "name": "auditorium",
        "lat": -7.1259658,
        "lng": 112.7226374
    },
    {
        "id": 411,
        "name": "Gedung Sekber UKM",
        "lat": -7.126016,
        "lng": 112.7238557
    },
    {
        "id": 412,
        "name": "Masjid Nurur Rahman",
        "lat": -7.126405,
        "lng": 112.7234754
    },
    {
        "id": 413,
        "name": "fakultas ilmu sosial dan budaya",
        "lat": -7.1266291,
        "lng": 112.722786
    },
    {
        "id": 414,
        "name": "Fakultas Pertanian dan Ruang Dosen",
        "lat": -7.1274424,
        "lng": 112.7224498
    },
    {
        "id": 415,
        "name": "Ruang Baca Fakultas ekonomi",
        "lat": -7.1283231,
        "lng": 112.7229739
    },
    {
        "id": 416,
        "name": "GSC",
        "lat": -7.1273229,
        "lng": 112.7236679
    },
    {
        "id": 417,
        "name": "Laboratorium Ilmu Kelautan dan TIP",
        "lat": -7.1277106,
        "lng": 112.7223195
    },
    {
        "id": 418,
        "name": "Perpustakaan Lama",
        "lat": -7.1272892,
        "lng": 112.7231001
    },
    {
        "id": 419,
        "name": "Gedung Soft Skill",
        "lat": -7.1259495,
        "lng": 112.72355
    },
    {
        "id": 420,
        "name": "Ruang Kuliah Bersama B",
        "lat": -7.1297959,
        "lng": 112.7237133
    },
    {
        "id": 421,
        "name": "Gedung RKB - C",
        "lat": -7.1286191,
        "lng": 112.7238509
    },
    {
        "id": 422,
        "name": "FT Unhas",
        "lat": -5.2297011,
        "lng": 119.5018873
    },
    {
        "id": 423,
        "name": "FT Unhas",
        "lat": -5.2314997,
        "lng": 119.5012466
    },
    {
        "id": 424,
        "name": "Universitas Darul Ulum",
        "lat": -7.5404349,
        "lng": 112.2473819
    },
    {
        "id": 425,
        "name": "Kampus ATMI",
        "lat": -7.5525476,
        "lng": 110.7751615
    },
    {
        "id": 426,
        "name": "UAD Kampus 3",
        "lat": -7.8082792,
        "lng": 110.3894215
    },
    {
        "id": 427,
        "name": "Institut Pertanian STIPER",
        "lat": -7.7824294,
        "lng": 110.3958986
    },
    {
        "id": 428,
        "name": "Universitas Teknologi Yogyakarta Kampus 2",
        "lat": -7.8057648,
        "lng": 110.388908
    },
    {
        "id": 429,
        "name": "Universitas Sarjanawiyata Tamansiswa Kampus 1",
        "lat": -7.8015438,
        "lng": 110.3923993
    },
    {
        "id": 430,
        "name": "Universitas Muslim Maros",
        "lat": -4.9976971,
        "lng": 119.5737937
    },
    {
        "id": 431,
        "name": "Fakultas Teknik Universitas Jenderal Soedirman",
        "lat": -7.4294862,
        "lng": 109.3367753
    },
    {
        "id": 432,
        "name": "Universitas Katolik Widya Mandala Surabaya",
        "lat": -7.2814773,
        "lng": 112.7448867
    },
    {
        "id": 433,
        "name": "Unnamed Campus",
        "lat": -8.5209222,
        "lng": 118.6503827
    },
    {
        "id": 434,
        "name": "Unnamed Campus",
        "lat": -8.5204299,
        "lng": 118.6505051
    },
    {
        "id": 435,
        "name": "Unnamed Campus",
        "lat": -8.5211424,
        "lng": 118.6501595
    },
    {
        "id": 436,
        "name": "Gedung Dekanat FAPERIKA",
        "lat": 0.4787889,
        "lng": 101.3809283
    },
    {
        "id": 437,
        "name": "Gedung Rektorat Universitas Riau",
        "lat": 0.4763608,
        "lng": 101.3807362
    },
    {
        "id": 438,
        "name": "Gedung E FKIP (fisika)",
        "lat": 0.4735671,
        "lng": 101.3813042
    },
    {
        "id": 439,
        "name": "Gedung H FKIP (Lab Bahasa, Sastra dan Jurnalistik)",
        "lat": 0.4725144,
        "lng": 101.3812872
    },
    {
        "id": 440,
        "name": "Gedung C FKIP (Ekonomi)",
        "lat": 0.473561,
        "lng": 101.380331
    },
    {
        "id": 441,
        "name": "Gedung D - FISIP",
        "lat": 0.4727346,
        "lng": 101.3789457
    },
    {
        "id": 442,
        "name": "Gedung A",
        "lat": 0.4792165,
        "lng": 101.3790602
    },
    {
        "id": 443,
        "name": "Gedung D FKIP (Bahasa Inggris)",
        "lat": 0.4734149,
        "lng": 101.3808083
    },
    {
        "id": 444,
        "name": "Gedung F FKIP (Matematika)",
        "lat": 0.473967,
        "lng": 101.3820185
    },
    {
        "id": 445,
        "name": "Gedung C FKIP (Biologi)",
        "lat": 0.4739638,
        "lng": 101.38131
    },
    {
        "id": 446,
        "name": "Gedung Pendopo Balai Bahasa Prov Riau",
        "lat": 0.4728012,
        "lng": 101.3819174
    },
    {
        "id": 447,
        "name": "Gedung Auditorium Sultan Balia FISIP",
        "lat": 0.4735212,
        "lng": 101.3781174
    },
    {
        "id": 448,
        "name": "Laboratorium Bahasa FKIP",
        "lat": 0.4740214,
        "lng": 101.3826821
    },
    {
        "id": 449,
        "name": "Magister Akuntansi",
        "lat": 0.4739204,
        "lng": 101.3769666
    },
    {
        "id": 450,
        "name": "Gedung B - FISIP",
        "lat": 0.4733982,
        "lng": 101.3791781
    },
    {
        "id": 451,
        "name": "Unit Pusat Pengembangan Bahasa (UP2B) Universitas Riau",
        "lat": 0.4751772,
        "lng": 101.3807978
    },
    {
        "id": 452,
        "name": "Gedung Dekanat Fakultas MIPA",
        "lat": 0.477638,
        "lng": 101.3770962
    },
    {
        "id": 453,
        "name": "Gerai Pendidikan FISIP",
        "lat": 0.4724574,
        "lng": 101.3787935
    },
    {
        "id": 454,
        "name": "Gelanggang Mahasiswa FISIP",
        "lat": 0.4727532,
        "lng": 101.3794859
    },
    {
        "id": 455,
        "name": "Perpustakaan FISIP",
        "lat": 0.473534,
        "lng": 101.3777436
    },
    {
        "id": 456,
        "name": "Area Parkir Perpustakaan UNRI",
        "lat": 0.4771282,
        "lng": 101.3799222
    },
    {
        "id": 457,
        "name": "Gedung A FKIP (Sejarah)",
        "lat": 0.4741985,
        "lng": 101.3803121
    },
    {
        "id": 458,
        "name": "Gedung Dekanat Fakultas Pertanian",
        "lat": 0.47877,
        "lng": 101.3785799
    },
    {
        "id": 459,
        "name": "Gedung C - FISIP",
        "lat": 0.4730634,
        "lng": 101.3792021
    },
    {
        "id": 460,
        "name": "Lapangan Olahraga FKIP",
        "lat": 0.4723055,
        "lng": 101.3808681
    },
    {
        "id": 461,
        "name": "Gedung E - FISIP",
        "lat": 0.4727631,
        "lng": 101.378384
    },
    {
        "id": 462,
        "name": "Gedung A - FISIP",
        "lat": 0.4737263,
        "lng": 101.3791788
    },
    {
        "id": 463,
        "name": "Gedung A FKIP (PPKN)",
        "lat": 0.4739443,
        "lng": 101.3803136
    },
    {
        "id": 464,
        "name": "Gedung F FKIP (Matematika)",
        "lat": 0.473434,
        "lng": 101.3820341
    },
    {
        "id": 465,
        "name": "Laboratorium IPS FKIP",
        "lat": 0.4743972,
        "lng": 101.3826786
    },
    {
        "id": 466,
        "name": "Laboratorium Bahasa Hubungan Internasional FISIP",
        "lat": 0.4737716,
        "lng": 101.3780984
    },
    {
        "id": 467,
        "name": "Gedung C FKIP (Kimia)",
        "lat": 0.4741956,
        "lng": 101.3813057
    },
    {
        "id": 468,
        "name": "Gedung E Teknologi Hasil Pertanian S2",
        "lat": 0.4726264,
        "lng": 101.3803257
    },
    {
        "id": 469,
        "name": "Pendopo FISIP",
        "lat": 0.4727333,
        "lng": 101.3786826
    },
    {
        "id": 470,
        "name": "Gedung H FKIP (Bahasa Sastra Indonesia)",
        "lat": 0.472873,
        "lng": 101.3812865
    },
    {
        "id": 471,
        "name": "Gedung D FKIP (Bahasa Inggris)",
        "lat": 0.473716,
        "lng": 101.3808149
    },
    {
        "id": 472,
        "name": "Pascasarjana Faperta UNRI",
        "lat": 0.4791542,
        "lng": 101.3781518
    },
    {
        "id": 473,
        "name": "Gedung F FKIP (Matematika)",
        "lat": 0.4736972,
        "lng": 101.3820356
    },
    {
        "id": 474,
        "name": "Gedung D FAPERTA Pascasarjana",
        "lat": 0.4728777,
        "lng": 101.3803244
    },
    {
        "id": 475,
        "name": "Laboratorium Pariwisata FISIP",
        "lat": 0.4721089,
        "lng": 101.3788522
    },
    {
        "id": 476,
        "name": "Sekretariat Jurusan Agribisnis",
        "lat": 0.4791766,
        "lng": 101.3785757
    },
    {
        "id": 477,
        "name": "Gedung Dekanat FISIP",
        "lat": 0.4734185,
        "lng": 101.3786834
    },
    {
        "id": 478,
        "name": "Gedung Micro Teaching FKIP",
        "lat": 0.4735302,
        "lng": 101.3826007
    },
    {
        "id": 479,
        "name": "Gedung Biro & Dekanat - FE UNRI",
        "lat": 0.4746787,
        "lng": 101.3766224
    },
    {
        "id": 480,
        "name": "Gedung D - FE UNRI",
        "lat": 0.4745786,
        "lng": 101.3761063
    },
    {
        "id": 481,
        "name": "Gedung L - FE UNRI",
        "lat": 0.4746452,
        "lng": 101.3756165
    },
    {
        "id": 482,
        "name": "Gedung C Fakultas Teknik UNRI",
        "lat": 0.4800754,
        "lng": 101.376734
    },
    {
        "id": 483,
        "name": "Laboratorium Kayu",
        "lat": 0.4804021,
        "lng": 101.3772025
    },
    {
        "id": 484,
        "name": "Universitas Islam Makassar",
        "lat": -5.1406435,
        "lng": 119.4810906
    },
    {
        "id": 485,
        "name": "Fakultas Ilmu Administrasi Uho",
        "lat": -4.0114149,
        "lng": 122.5229964
    },
    {
        "id": 486,
        "name": "Fakultas Keguruan dan Ilmu Pendidikan Universitas Halu Oleo",
        "lat": -4.0071711,
        "lng": 122.5218103
    },
    {
        "id": 487,
        "name": "Fakultas Ilmu Pendidikan UNM",
        "lat": -5.1743065,
        "lng": 119.4454013
    },
    {
        "id": 488,
        "name": "Universitas Islam Negeri Sunan Gunung Djati",
        "lat": -6.9308588,
        "lng": 107.7174855
    },
    {
        "id": 489,
        "name": "Gedung Perkuliahan FMIFA",
        "lat": -0.8958504,
        "lng": 100.3465834
    },
    {
        "id": 490,
        "name": "Universitas Muhammadiyah Sukabumi",
        "lat": -6.9191477,
        "lng": 106.9341378
    },
    {
        "id": 491,
        "name": "Laboratorium MIPA",
        "lat": -0.0584719,
        "lng": 109.3451935
    },
    {
        "id": 492,
        "name": "Politeknik LP31 Medan",
        "lat": 3.5775947,
        "lng": 98.6489141
    },
    {
        "id": 493,
        "name": "Universitas Methodist Indonesia",
        "lat": 3.5792882,
        "lng": 98.6711861
    },
    {
        "id": 494,
        "name": "Univ. Muhammadiyah Pontianak",
        "lat": -0.0601455,
        "lng": 109.3521294
    },
    {
        "id": 495,
        "name": "Univ. Muhammadiyah Pontianak",
        "lat": -0.0595836,
        "lng": 109.3515982
    },
    {
        "id": 496,
        "name": "Fakultas Kehutanan UNTAN",
        "lat": -0.0500935,
        "lng": 109.3525305
    },
    {
        "id": 497,
        "name": "Politeknik Negeri Medan",
        "lat": 3.5632759,
        "lng": 98.6535839
    },
    {
        "id": 498,
        "name": "Unnamed Campus",
        "lat": -8.5791177,
        "lng": 118.6781495
    },
    {
        "id": 499,
        "name": "Unnamed Campus",
        "lat": -8.5795533,
        "lng": 118.6780444
    },
    {
        "id": 500,
        "name": "STKIP HAMZAR KLU",
        "lat": -8.2528681,
        "lng": 116.4317149
    },
    {
        "id": 501,
        "name": "Fakultas Kedokteran",
        "lat": 3.566546,
        "lng": 98.6592802
    },
    {
        "id": 502,
        "name": "SMP Diana",
        "lat": 3.5703697,
        "lng": 98.7044398
    },
    {
        "id": 503,
        "name": "SMP Diana",
        "lat": 3.5704999,
        "lng": 98.7044116
    },
    {
        "id": 504,
        "name": "Universitas Muhammadiyah Parepare",
        "lat": -3.9846444,
        "lng": 119.6506268
    },
    {
        "id": 505,
        "name": "IAIN Salatiga",
        "lat": -7.3290292,
        "lng": 110.4988312
    },
    {
        "id": 506,
        "name": "UTY Kampus 1",
        "lat": -7.7483164,
        "lng": 110.3552113
    },
    {
        "id": 507,
        "name": "Fakultas Kedokteran dan Fakultas Kedokteran Gigi Universitas Lambung Mangkurat",
        "lat": -3.3210534,
        "lng": 114.6027659
    },
    {
        "id": 508,
        "name": "Universitas Komputer Indonesia",
        "lat": -6.8870576,
        "lng": 107.615439
    },
    {
        "id": 509,
        "name": "Institut Teknologi Harapan Bangsa",
        "lat": -6.888923,
        "lng": 107.6160237
    },
    {
        "id": 510,
        "name": "Magister Manajemen Universitas Padjadjaran",
        "lat": -6.8948153,
        "lng": 107.6179279
    },
    {
        "id": 511,
        "name": "Universitas Methodist Indonesia Kampus II",
        "lat": 3.5540207,
        "lng": 98.6303663
    },
    {
        "id": 512,
        "name": "Fakultas Hukum dan Fisipol",
        "lat": 3.6147571,
        "lng": 98.6754176
    },
    {
        "id": 513,
        "name": "Postgraduate Building",
        "lat": -8.6726334,
        "lng": 115.2186485
    },
    {
        "id": 514,
        "name": "Administration Building of Engineering",
        "lat": -8.6718727,
        "lng": 115.2194803
    },
    {
        "id": 515,
        "name": "E Building",
        "lat": -8.6716274,
        "lng": 115.2193593
    },
    {
        "id": 516,
        "name": "GDLN Building",
        "lat": -8.6726346,
        "lng": 115.2195564
    },
    {
        "id": 517,
        "name": "Fakultas Ilmu Kesehatan UPN Veteran Jakarta Limo",
        "lat": -6.3542615,
        "lng": 106.7752761
    },
    {
        "id": 518,
        "name": "Language Laboratory",
        "lat": -8.6720346,
        "lng": 115.2188499
    },
    {
        "id": 519,
        "name": "Social and Political Sciences Building",
        "lat": -8.672091,
        "lng": 115.2191931
    },
    {
        "id": 520,
        "name": "D Building",
        "lat": -8.6715969,
        "lng": 115.2196143
    },
    {
        "id": 521,
        "name": "Agriculture Building",
        "lat": -8.6718266,
        "lng": 115.2191976
    },
    {
        "id": 522,
        "name": "C Building",
        "lat": -8.6718593,
        "lng": 115.219747
    },
    {
        "id": 523,
        "name": "B Building",
        "lat": -8.6720272,
        "lng": 115.2195855
    },
    {
        "id": 524,
        "name": "Unnamed Campus",
        "lat": -8.6723894,
        "lng": 115.2192816
    },
    {
        "id": 525,
        "name": "Unnamed Campus",
        "lat": -8.6755794,
        "lng": 115.2137137
    },
    {
        "id": 526,
        "name": "UIN Ar-Raniry",
        "lat": 5.5781368,
        "lng": 95.3672523
    },
    {
        "id": 527,
        "name": "UIN Fatmawati Sukarno Bengkulu",
        "lat": -3.8344102,
        "lng": 102.3284186
    },
    {
        "id": 528,
        "name": "Politeknik Negeri Samarinda",
        "lat": -0.5340731,
        "lng": 117.1251615
    },
    {
        "id": 529,
        "name": "Sekolah Tinggi Teknologi Hamzanwadi",
        "lat": -8.6497118,
        "lng": 116.5254077
    },
    {
        "id": 530,
        "name": "Kampus Kesatuan",
        "lat": -6.6066043,
        "lng": 106.7996907
    },
    {
        "id": 531,
        "name": "Politeknik Banjarnegara",
        "lat": -7.3797826,
        "lng": 109.7048267
    },
    {
        "id": 532,
        "name": "Universitas Syiah Kuala",
        "lat": 5.5690839,
        "lng": 95.3712671
    },
    {
        "id": 533,
        "name": "Unnamed Campus",
        "lat": -7.4351543,
        "lng": 109.2662617
    },
    {
        "id": 534,
        "name": "Unnamed Campus",
        "lat": -7.4350651,
        "lng": 109.2658392
    },
    {
        "id": 535,
        "name": "Unnamed Campus",
        "lat": -7.4349789,
        "lng": 109.2660458
    },
    {
        "id": 536,
        "name": "Unnamed Campus",
        "lat": -7.4349176,
        "lng": 109.2665112
    },
    {
        "id": 537,
        "name": "STMIK \"AMIKBANDUNG\"",
        "lat": -6.9152112,
        "lng": 107.6382636
    },
    {
        "id": 538,
        "name": "Economic Extension Building",
        "lat": -8.6742257,
        "lng": 115.2191837
    },
    {
        "id": 539,
        "name": "Veterinary Madicine Building",
        "lat": -8.6735785,
        "lng": 115.2194456
    },
    {
        "id": 540,
        "name": "BJ Building",
        "lat": -8.6740664,
        "lng": 115.2189437
    },
    {
        "id": 541,
        "name": "Diploma Teknik Sipil ITS",
        "lat": -7.2867455,
        "lng": 112.7638288
    },
    {
        "id": 542,
        "name": "Politeknik Negeri Lhokseumawe",
        "lat": 5.1192175,
        "lng": 97.156784
    },
    {
        "id": 543,
        "name": "Akademi Keperawatan Lhokseumawe",
        "lat": 5.1244654,
        "lng": 97.1554158
    },
    {
        "id": 544,
        "name": "LPPM",
        "lat": -7.1258674,
        "lng": 112.7217759
    },
    {
        "id": 545,
        "name": "Universitas Malikussaleh",
        "lat": 5.2317001,
        "lng": 96.9821597
    },
    {
        "id": 546,
        "name": "BM Building",
        "lat": -8.6742953,
        "lng": 115.2189179
    },
    {
        "id": 547,
        "name": "BI Building",
        "lat": -8.6740307,
        "lng": 115.218677
    },
    {
        "id": 548,
        "name": "GDLN Building",
        "lat": -8.6727385,
        "lng": 115.2196693
    },
    {
        "id": 549,
        "name": "Student Centre",
        "lat": -8.6713227,
        "lng": 115.2203486
    },
    {
        "id": 550,
        "name": "Politeknik Kesehatan Banda Aceh",
        "lat": 5.5078025,
        "lng": 95.3416845
    },
    {
        "id": 551,
        "name": "B Building",
        "lat": -8.6749686,
        "lng": 115.2136654
    },
    {
        "id": 552,
        "name": "C Building",
        "lat": -8.6752269,
        "lng": 115.2135254
    },
    {
        "id": 553,
        "name": "Dr.R.Goris Building",
        "lat": -8.6754614,
        "lng": 115.2139472
    },
    {
        "id": 554,
        "name": "Undagi Graha Hall",
        "lat": -8.7956957,
        "lng": 115.1763313
    },
    {
        "id": 555,
        "name": "BB Building",
        "lat": -8.7929455,
        "lng": 115.178247
    },
    {
        "id": 556,
        "name": "BC Building",
        "lat": -8.7925137,
        "lng": 115.1781669
    },
    {
        "id": 557,
        "name": "BJ Building",
        "lat": -8.7934331,
        "lng": 115.1781672
    },
    {
        "id": 558,
        "name": "Universitas Pesantren Tinggi Darul 'Ulum",
        "lat": -7.5441683,
        "lng": 112.2780527
    },
    {
        "id": 559,
        "name": "Politeknik Pelayaran Surabaya",
        "lat": -7.3444647,
        "lng": 112.795767
    },
    {
        "id": 560,
        "name": "AX Building",
        "lat": -8.7989954,
        "lng": 115.1719846
    },
    {
        "id": 561,
        "name": "FK Building",
        "lat": -8.7992643,
        "lng": 115.1721591
    },
    {
        "id": 562,
        "name": "BA Building",
        "lat": -8.7930834,
        "lng": 115.1778784
    },
    {
        "id": 563,
        "name": "BF Building",
        "lat": -8.7926506,
        "lng": 115.178423
    },
    {
        "id": 564,
        "name": "BH Building",
        "lat": -8.7925036,
        "lng": 115.1787495
    },
    {
        "id": 565,
        "name": "BI Building",
        "lat": -8.7929534,
        "lng": 115.1787322
    },
    {
        "id": 566,
        "name": "GG Building",
        "lat": -8.7990301,
        "lng": 115.1701178
    },
    {
        "id": 567,
        "name": "HC Building",
        "lat": -8.7993369,
        "lng": 115.1677013
    },
    {
        "id": 568,
        "name": "HK Building",
        "lat": -8.7988931,
        "lng": 115.1679423
    },
    {
        "id": 569,
        "name": "Unnamed Campus",
        "lat": -8.7995851,
        "lng": 115.1701341
    },
    {
        "id": 570,
        "name": "Faculty of Economic and Business Udayana University",
        "lat": -8.6742649,
        "lng": 115.2186481
    },
    {
        "id": 571,
        "name": "A Building",
        "lat": -8.67513,
        "lng": 115.2137637
    },
    {
        "id": 572,
        "name": "Postgraduate of Notary",
        "lat": -8.6750113,
        "lng": 115.2139344
    },
    {
        "id": 573,
        "name": "Prof. I Gst Ngurah Bagus Building",
        "lat": -8.6752759,
        "lng": 115.2137404
    },
    {
        "id": 574,
        "name": "Unnamed Campus",
        "lat": -8.6754591,
        "lng": 115.2134901
    },
    {
        "id": 575,
        "name": "Laboratory of Animal Husbandry",
        "lat": -8.7905339,
        "lng": 115.1782284
    },
    {
        "id": 576,
        "name": "Central Swalayan",
        "lat": -8.0709323,
        "lng": 111.7058586
    },
    {
        "id": 577,
        "name": "Universitas Lampung UNILA",
        "lat": -5.3645536,
        "lng": 105.2429763
    },
    {
        "id": 578,
        "name": "Pascasarjana Universitas Pendidikan Nasional",
        "lat": -8.6783745,
        "lng": 115.2250389
    },
    {
        "id": 579,
        "name": "FKIP Jurusan Olah Raga - UNRI",
        "lat": 0.5699184,
        "lng": 101.4322505
    },
    {
        "id": 580,
        "name": "Gedung Auditorium Grand Gasing Millenium UNRI",
        "lat": 0.4799108,
        "lng": 101.3907236
    },
    {
        "id": 581,
        "name": "Institut Teknologi Sepuluh Nopember",
        "lat": -7.2825531,
        "lng": 112.7953407
    },
    {
        "id": 582,
        "name": "Udayana University Faculty of Health Science",
        "lat": -8.677741,
        "lng": 115.2125145
    },
    {
        "id": 583,
        "name": "Universitas Warmadewa",
        "lat": -8.6582932,
        "lng": 115.2427977
    },
    {
        "id": 584,
        "name": "POLITEKNIK ACEH",
        "lat": 5.5356681,
        "lng": 95.3461664
    },
    {
        "id": 585,
        "name": "Stikper Gunung Sari Makassar",
        "lat": -5.1855923,
        "lng": 119.4412341
    },
    {
        "id": 586,
        "name": "Fakultas Kedokteran UNRI",
        "lat": 0.5245848,
        "lng": 101.4531597
    },
    {
        "id": 587,
        "name": "Kampus C Universitas Airlangga",
        "lat": -7.2662955,
        "lng": 112.7859648
    },
    {
        "id": 588,
        "name": "STAI Rasyidiyah Khalidiyah",
        "lat": -2.4113074,
        "lng": 115.2562677
    },
    {
        "id": 589,
        "name": "Lab Galeri Investasi Bursa Efek Indonesia FEB Universitas Haluoleo",
        "lat": -4.0117477,
        "lng": 122.5225042
    },
    {
        "id": 590,
        "name": "Gedung Rektorat UHO",
        "lat": -4.0082613,
        "lng": 122.5208352
    },
    {
        "id": 591,
        "name": "Fakultas Farmasi UHO",
        "lat": -4.0060344,
        "lng": 122.5206728
    },
    {
        "id": 592,
        "name": "Universitas Tujuh Belas Agustus Samarinda",
        "lat": -0.4798617,
        "lng": 117.1341726
    },
    {
        "id": 593,
        "name": "Fakultas Keguruan & Ilmu Pendidikan",
        "lat": -0.4884368,
        "lng": 117.1473994
    },
    {
        "id": 594,
        "name": "Universitas Widya Gama Mahakam",
        "lat": -0.4613189,
        "lng": 117.1491788
    },
    {
        "id": 595,
        "name": "IAIN Surakarta",
        "lat": -7.5578813,
        "lng": 110.7347616
    },
    {
        "id": 596,
        "name": "Pascasarjana UIN Sultan Syarif Kasim Riau",
        "lat": 0.5103126,
        "lng": 101.4369885
    },
    {
        "id": 597,
        "name": "Gedung Fakultas Hukum Universitas Riau",
        "lat": 0.4781964,
        "lng": 101.3889234
    },
    {
        "id": 598,
        "name": "Laboratorium PMIPA FKIP",
        "lat": 0.4750089,
        "lng": 101.3827525
    },
    {
        "id": 599,
        "name": "BEM Fakultas Ekonomi",
        "lat": 0.4740779,
        "lng": 101.375609
    },
    {
        "id": 600,
        "name": "Gedung BEM FKIP",
        "lat": 0.472607,
        "lng": 101.3817811
    },
    {
        "id": 601,
        "name": "Gedung Pascasarjana FISIP",
        "lat": 0.4740913,
        "lng": 101.3795755
    },
    {
        "id": 602,
        "name": "Laboratorium Ilmu Komunikasi FISIP",
        "lat": 0.4720255,
        "lng": 101.3793197
    },
    {
        "id": 603,
        "name": "Gedung Dekanat FKIP",
        "lat": 0.4741426,
        "lng": 101.380808
    },
    {
        "id": 604,
        "name": "Universitas Terbuka Kendari",
        "lat": -4.0019102,
        "lng": 122.5332792
    },
    {
        "id": 605,
        "name": "Fakultas Hukum Universitas Riau",
        "lat": 0.5115133,
        "lng": 101.4562225
    },
    {
        "id": 606,
        "name": "STIE AMA Salatiga",
        "lat": -7.3218754,
        "lng": 110.500009
    },
    {
        "id": 607,
        "name": "Politeknik Manufaktur Bangka (former Polman Timah)",
        "lat": -1.8523313,
        "lng": 106.1316083
    },
    {
        "id": 608,
        "name": "Universitas Sains Quran (UNSIQ)",
        "lat": -7.3296518,
        "lng": 109.9016065
    },
    {
        "id": 609,
        "name": "Unnamed Campus",
        "lat": 3.7399242,
        "lng": 96.8368797
    },
    {
        "id": 610,
        "name": "Yayasan Sandjojo - Universitas Katolik Soegijapranata",
        "lat": -6.9793947,
        "lng": 110.4116764
    },
    {
        "id": 611,
        "name": "Fakultas Ekonomi dan Bisnis Universitas 17 Agustus 1945",
        "lat": -6.9786977,
        "lng": 110.4111268
    },
    {
        "id": 612,
        "name": "Fakultas Ekonomi dan Bisnis (FEB) UNY",
        "lat": -7.773532,
        "lng": 110.3865216
    },
    {
        "id": 613,
        "name": "Fakultas Ilmu Sosial, Hukum, dan Ilmu Politik (FISHIPOL) UNY",
        "lat": -7.7735998,
        "lng": 110.3877866
    },
    {
        "id": 614,
        "name": "Universitas Muhammadiyah ABDYA",
        "lat": 3.7452598,
        "lng": 96.7971072
    },
    {
        "id": 615,
        "name": "Universitas Mercu Buana Yogyakarta. Kampus 1 Sedayu",
        "lat": -7.80839,
        "lng": 110.2709234
    },
    {
        "id": 616,
        "name": "Kampus 2 Universitas PGRI Semarang",
        "lat": -7.0037028,
        "lng": 110.4258094
    },
    {
        "id": 617,
        "name": "FT Unhas",
        "lat": -5.2334357,
        "lng": 119.5038893
    },
    {
        "id": 618,
        "name": "FT Unhas",
        "lat": -5.23365,
        "lng": 119.5045721
    },
    {
        "id": 619,
        "name": "FT Unhas",
        "lat": -5.2327585,
        "lng": 119.5048494
    },
    {
        "id": 620,
        "name": "Unnamed Campus",
        "lat": -5.2633488,
        "lng": 119.4959644
    },
    {
        "id": 621,
        "name": "IPDN",
        "lat": -5.262314,
        "lng": 119.4951384
    },
    {
        "id": 622,
        "name": "Universitas Negeri Surabaya",
        "lat": -7.3019099,
        "lng": 112.669028
    },
    {
        "id": 623,
        "name": "Universitas Pelita Harapan",
        "lat": -6.2289845,
        "lng": 106.6118498
    },
    {
        "id": 624,
        "name": "IAI Almuslim Aceh",
        "lat": 5.1981723,
        "lng": 96.7704898
    },
    {
        "id": 625,
        "name": "STIH Tsafioddin",
        "lat": 0.9087099,
        "lng": 108.9809388
    },
    {
        "id": 626,
        "name": "Institut Teknologi Minaesa",
        "lat": 1.3084414,
        "lng": 124.8414748
    },
    {
        "id": 627,
        "name": "Kampus Bersinar UKIT",
        "lat": 1.3380043,
        "lng": 124.8370119
    },
    {
        "id": 628,
        "name": "Kampus UKIT YPTK",
        "lat": 1.3377043,
        "lng": 124.8363911
    },
    {
        "id": 629,
        "name": "Pascasarjana Unima Tomohon",
        "lat": 1.3130474,
        "lng": 124.8460658
    },
    {
        "id": 630,
        "name": "Fakultas Ilmu Pendidikan Unima",
        "lat": 1.3120489,
        "lng": 124.8471058
    },
    {
        "id": 631,
        "name": "Sekolah Tinggi Pastoral Don Bosco",
        "lat": 1.3127314,
        "lng": 124.8480861
    },
    {
        "id": 632,
        "name": "Akademi Keperawatan Bethesda Tomohon",
        "lat": 1.3267181,
        "lng": 124.8384552
    },
    {
        "id": 633,
        "name": "kharisma",
        "lat": -5.1611251,
        "lng": 119.4143098
    },
    {
        "id": 634,
        "name": "Program Studi Pasca Sarjana, Insitut Seni Indonesia Yogyakarta",
        "lat": -7.8168206,
        "lng": 110.361703
    },
    {
        "id": 635,
        "name": "Universitas Pembangunan Jaya",
        "lat": -6.2732172,
        "lng": 106.7107082
    },
    {
        "id": 636,
        "name": "IKIP PGRI Kaltim",
        "lat": -0.4628861,
        "lng": 117.1476757
    },
    {
        "id": 637,
        "name": "IKIP PGRI Kaltim",
        "lat": -0.4621737,
        "lng": 117.14786
    },
    {
        "id": 638,
        "name": "IKIP PGRI Kaltim",
        "lat": -0.4625552,
        "lng": 117.1480441
    },
    {
        "id": 639,
        "name": "IKIP PGRI Kaltim",
        "lat": -0.4623215,
        "lng": 117.1474843
    },
    {
        "id": 640,
        "name": "Politeknik Pertanian Negeri Samarinda",
        "lat": -0.5374529,
        "lng": 117.1249754
    },
    {
        "id": 641,
        "name": "Universitas Mulawarman FKIP",
        "lat": -0.4925692,
        "lng": 117.1217322
    },
    {
        "id": 642,
        "name": "Farmasi Unsoed",
        "lat": -7.4109087,
        "lng": 109.2521453
    },
    {
        "id": 643,
        "name": "Akademi Teknik Kulit",
        "lat": -7.8334781,
        "lng": 110.3622451
    },
    {
        "id": 644,
        "name": "Universitas Dharmas Indonesia",
        "lat": -1.0580667,
        "lng": 101.6434659
    },
    {
        "id": 645,
        "name": "Pradita University",
        "lat": -6.2607071,
        "lng": 106.6182379
    },
    {
        "id": 646,
        "name": "PIN UNMUL",
        "lat": -0.4983419,
        "lng": 117.1517773
    },
    {
        "id": 647,
        "name": "Universitas Pendidikan Ganesha",
        "lat": -8.705397,
        "lng": 115.2185256
    },
    {
        "id": 648,
        "name": "Stt-Migas Balikpapan",
        "lat": -1.1940568,
        "lng": 116.8930548
    },
    {
        "id": 649,
        "name": "TMAB",
        "lat": -1.2015175,
        "lng": 116.887394
    },
    {
        "id": 650,
        "name": "Gedung Elektro",
        "lat": -1.2019347,
        "lng": 116.8868373
    },
    {
        "id": 651,
        "name": "Undiknas University",
        "lat": -8.6964136,
        "lng": 115.2262932
    },
    {
        "id": 652,
        "name": "STIKI Indonesia",
        "lat": -8.6907802,
        "lng": 115.2264177
    },
    {
        "id": 653,
        "name": "Politeknik Kesehatan Denpasar",
        "lat": -8.7054135,
        "lng": 115.2289226
    },
    {
        "id": 654,
        "name": "Sekolah Tinggi Ilmu Kesehatan Bali",
        "lat": -8.6896027,
        "lng": 115.2257737
    },
    {
        "id": 655,
        "name": "Unnamed Campus",
        "lat": -8.5903945,
        "lng": 116.0826595
    },
    {
        "id": 656,
        "name": "Universitas Balikpapan",
        "lat": -1.2653622,
        "lng": 116.8667682
    },
    {
        "id": 657,
        "name": "Politeknik Muara Teweh",
        "lat": -0.9749654,
        "lng": 114.8973211
    },
    {
        "id": 658,
        "name": "Universitas Katolik Darma Cendika",
        "lat": -7.2915766,
        "lng": 112.7812152
    },
    {
        "id": 659,
        "name": "Universitas Mahasaraswati",
        "lat": -8.6465085,
        "lng": 115.2508812
    },
    {
        "id": 660,
        "name": "PGSD UPP4 UNNES Tegal",
        "lat": -6.8713134,
        "lng": 109.1206799
    },
    {
        "id": 661,
        "name": "Fakultas Kedokteran Unisba",
        "lat": -6.9033264,
        "lng": 107.6087373
    },
    {
        "id": 662,
        "name": "Universitas Hindu Indonesia",
        "lat": -8.6334619,
        "lng": 115.2436711
    },
    {
        "id": 663,
        "name": "Sekolah Tinggi Pariwisata Bali",
        "lat": -8.6337627,
        "lng": 115.2275965
    },
    {
        "id": 664,
        "name": "STIKES Wira Medika PPNI Bali",
        "lat": -8.6338475,
        "lng": 115.2268241
    },
    {
        "id": 665,
        "name": "Kampus II Universitas Islam Negeri Walisongo",
        "lat": -6.9871075,
        "lng": 110.359348
    },
    {
        "id": 666,
        "name": "Universitas Ahmad Dahlan Kampus 1",
        "lat": -7.7986957,
        "lng": 110.3828601
    },
    {
        "id": 667,
        "name": "Kampus III Universitas Islam Negeri Walisongo",
        "lat": -6.9917127,
        "lng": 110.3481898
    },
    {
        "id": 668,
        "name": "Kampus II Universitas Islam Negeri Walisongo",
        "lat": -6.9903213,
        "lng": 110.3522162
    },
    {
        "id": 669,
        "name": "Universitas Terbuka",
        "lat": 5.550242,
        "lng": 95.3051214
    },
    {
        "id": 670,
        "name": "UNDARIS UNGARAN",
        "lat": -7.1414664,
        "lng": 110.4162156
    },
    {
        "id": 671,
        "name": "Universitas Pembangunan Nasional \"Veteran\" Jakarta",
        "lat": -6.3158844,
        "lng": 106.7944714
    },
    {
        "id": 672,
        "name": "Gd. Genset UPNVY",
        "lat": -7.7633352,
        "lng": 110.4083547
    },
    {
        "id": 673,
        "name": "Rumah Kaca Fakultas Pertanian UPNVY",
        "lat": -7.7624796,
        "lng": 110.4101988
    },
    {
        "id": 674,
        "name": "UPN Veteran Yogyakarta Kampus II",
        "lat": -7.7820363,
        "lng": 110.4151564
    },
    {
        "id": 675,
        "name": "FIA D",
        "lat": -7.9496246,
        "lng": 112.6136872
    },
    {
        "id": 676,
        "name": "Fakultas Peternakan 4",
        "lat": -7.9523912,
        "lng": 112.6110107
    },
    {
        "id": 677,
        "name": "Fakultas Ekonomi UIN Maulana Malik Ibrahim Malang",
        "lat": -7.951488,
        "lng": 112.6070352
    },
    {
        "id": 678,
        "name": "Universitas PGRI Wiranegara",
        "lat": -7.6690623,
        "lng": 112.9027866
    },
    {
        "id": 679,
        "name": "Fakultas Teknik Untirta",
        "lat": -5.9969229,
        "lng": 106.0316095
    },
    {
        "id": 680,
        "name": "Bina Sarana Informatika",
        "lat": -6.304607,
        "lng": 106.6872431
    },
    {
        "id": 681,
        "name": "Universitas Indonesia",
        "lat": -6.360529,
        "lng": 106.8260881
    },
    {
        "id": 682,
        "name": "Universitas Gunadarma Kampus D",
        "lat": -6.3685077,
        "lng": 106.8331233
    },
    {
        "id": 683,
        "name": "Universitas Gunadarma Kampus E",
        "lat": -6.3539296,
        "lng": 106.841318
    },
    {
        "id": 684,
        "name": "Kampus G Universitas Gunadarma",
        "lat": -6.3543513,
        "lng": 106.8436279
    },
    {
        "id": 685,
        "name": "Kampus H Universitas Gunadarma",
        "lat": -6.3529851,
        "lng": 106.8372322
    },
    {
        "id": 686,
        "name": "Pusat Perdamaian dan Keamanan Indonesia",
        "lat": -6.5259575,
        "lng": 106.8803644
    },
    {
        "id": 687,
        "name": "Universitas Islam Negeri (UIN) Raden Intan Lampung",
        "lat": -5.3810176,
        "lng": 105.3026918
    },
    {
        "id": 688,
        "name": "universitas serambi mekkah",
        "lat": 5.5475679,
        "lng": 95.3335821
    },
    {
        "id": 689,
        "name": "Universitas Patria Artha Gowa",
        "lat": -5.1881781,
        "lng": 119.4765659
    },
    {
        "id": 690,
        "name": "Unnamed Campus",
        "lat": -5.1879508,
        "lng": 119.4768337
    },
    {
        "id": 691,
        "name": "Universitas Islam Negeri Alauddin",
        "lat": -5.2058706,
        "lng": 119.4969901
    },
    {
        "id": 692,
        "name": "BP2IP Barombong",
        "lat": -5.2043652,
        "lng": 119.38497
    },
    {
        "id": 693,
        "name": "Pasca Sarjana UNISMA",
        "lat": -7.9357347,
        "lng": 112.6071228
    },
    {
        "id": 694,
        "name": "Universitas Darwan Ali",
        "lat": -2.5421913,
        "lng": 112.9463115
    },
    {
        "id": 695,
        "name": "Kampus UUP 2 FIP UNY",
        "lat": -7.81661,
        "lng": 110.3549688
    },
    {
        "id": 696,
        "name": "Kampus UUP 2 FIP UNY",
        "lat": -7.8164533,
        "lng": 110.3555892
    },
    {
        "id": 697,
        "name": "Kampus UUP 2 FIP UNY",
        "lat": -7.8169137,
        "lng": 110.3555824
    },
    {
        "id": 698,
        "name": "Kampus UUP 2 FIP UNY",
        "lat": -7.81702,
        "lng": 110.3549509
    },
    {
        "id": 699,
        "name": "Kampus UUP 2 FIP UNY",
        "lat": -7.8167688,
        "lng": 110.3556892
    },
    {
        "id": 700,
        "name": "Universitas Islam Bandung",
        "lat": -6.9034335,
        "lng": 107.6078385
    },
    {
        "id": 701,
        "name": "Kampus STIE Sampit",
        "lat": -2.5308253,
        "lng": 112.9559732
    },
    {
        "id": 702,
        "name": "Universitas Kristen Palangka Raya",
        "lat": -2.2838527,
        "lng": 113.9245174
    },
    {
        "id": 703,
        "name": "R. Guru",
        "lat": 0.4602286,
        "lng": 101.4190672
    },
    {
        "id": 704,
        "name": "Universitas Advent Indonesia",
        "lat": -6.8017573,
        "lng": 107.5794473
    },
    {
        "id": 705,
        "name": "Universitas Kristen Indonesia Maluku",
        "lat": -3.7025286,
        "lng": 128.172121
    },
    {
        "id": 706,
        "name": "PGSD Universitas Pattimura",
        "lat": -3.7013791,
        "lng": 128.1787382
    },
    {
        "id": 707,
        "name": "Gedung Belajar Fakultas Syariah",
        "lat": 0.4680036,
        "lng": 101.3535117
    },
    {
        "id": 708,
        "name": "101-Pengadilan Semu-323",
        "lat": 0.467765,
        "lng": 101.3533077
    },
    {
        "id": 709,
        "name": "102-Ruang Dosen-333",
        "lat": 0.4678061,
        "lng": 101.3534348
    },
    {
        "id": 710,
        "name": "104-220-327",
        "lat": 0.467929,
        "lng": 101.3538159
    },
    {
        "id": 711,
        "name": "Bursa Efek-219-328",
        "lat": 0.4680264,
        "lng": 101.353784
    },
    {
        "id": 712,
        "name": "105-218-329",
        "lat": 0.4681242,
        "lng": 101.3537526
    },
    {
        "id": 713,
        "name": "-111-212-325",
        "lat": 0.4679595,
        "lng": 101.3532441
    },
    {
        "id": 714,
        "name": "110-213-334",
        "lat": 0.4680568,
        "lng": 101.353201
    },
    {
        "id": 715,
        "name": "109-214-333",
        "lat": 0.4680982,
        "lng": 101.3533399
    },
    {
        "id": 716,
        "name": "108-215-323",
        "lat": 0.4681395,
        "lng": 101.3534673
    },
    {
        "id": 717,
        "name": "107-216-331",
        "lat": 0.4681807,
        "lng": 101.3535944
    },
    {
        "id": 718,
        "name": "106-217-330",
        "lat": 0.4682215,
        "lng": 101.3537214
    },
    {
        "id": 719,
        "name": "-Bank Mini-221-322",
        "lat": 0.4678621,
        "lng": 101.3532759
    },
    {
        "id": 720,
        "name": "HKBP Nomensen",
        "lat": 3.5970404,
        "lng": 98.6809112
    },
    {
        "id": 721,
        "name": "ISTP Medan",
        "lat": 3.5798012,
        "lng": 98.6644272
    },
    {
        "id": 722,
        "name": "Fakultas Ilmu Sosial dan Ilmu Politik",
        "lat": 3.5568752,
        "lng": 98.6570557
    },
    {
        "id": 723,
        "name": "Universitas Sumatera Utara",
        "lat": 3.5616623,
        "lng": 98.6567018
    },
    {
        "id": 724,
        "name": "STAHN Gde Puja Mataram",
        "lat": -8.5856461,
        "lng": 116.1027214
    },
    {
        "id": 725,
        "name": "Universitas Surabaya",
        "lat": -7.2931149,
        "lng": 112.7613302
    },
    {
        "id": 726,
        "name": "STIE Kesuma Negara",
        "lat": -8.1009966,
        "lng": 112.1648258
    },
    {
        "id": 727,
        "name": "Universitas Katolik Widya Mandala Surabaya",
        "lat": -7.2599254,
        "lng": 112.7731172
    },
    {
        "id": 728,
        "name": "Universitas Malikussah Lancang Garam",
        "lat": 5.1812335,
        "lng": 97.1486657
    },
    {
        "id": 729,
        "name": "Universitas Negeri Medan",
        "lat": 3.608218,
        "lng": 98.7172162
    },
    {
        "id": 730,
        "name": "Universitas Sisingamangaraja XII",
        "lat": 3.5989204,
        "lng": 98.6909319
    },
    {
        "id": 731,
        "name": "UKRIM",
        "lat": -7.7754129,
        "lng": 110.450176
    },
    {
        "id": 732,
        "name": "Universitas Al Muslim",
        "lat": 5.1772961,
        "lng": 97.1301346
    },
    {
        "id": 733,
        "name": "Universitas Nahdlatul Ulama Kaltim",
        "lat": -0.541205,
        "lng": 117.1313705
    },
    {
        "id": 734,
        "name": "FIA C",
        "lat": -7.9497657,
        "lng": 112.6138499
    },
    {
        "id": 735,
        "name": "Universitas Dharmawangsa",
        "lat": 3.6135865,
        "lng": 98.6734774
    },
    {
        "id": 736,
        "name": "Universitas Bandar Lampung (UBL)",
        "lat": -5.3795423,
        "lng": 105.2517642
    },
    {
        "id": 737,
        "name": "Akademi Keperawatan Metuari Waya Manado",
        "lat": 1.4579364,
        "lng": 124.7872379
    },
    {
        "id": 738,
        "name": "Unnamed Campus",
        "lat": -8.5976268,
        "lng": 116.5013224
    },
    {
        "id": 739,
        "name": "Unnamed Campus",
        "lat": -8.5958342,
        "lng": 116.5035079
    },
    {
        "id": 740,
        "name": "AKBID Trinita Manado",
        "lat": 1.4559473,
        "lng": 124.8029341
    },
    {
        "id": 741,
        "name": "Akper Rumkit Tk II Manado",
        "lat": 1.474145,
        "lng": 124.8431183
    },
    {
        "id": 742,
        "name": "Sekolah Tinggi Ilmu Kesehatan (STIKES) Muhammadiyah Manado",
        "lat": 1.5483908,
        "lng": 124.8574035
    },
    {
        "id": 743,
        "name": "IAIN MANADO",
        "lat": 1.467443,
        "lng": 124.884845
    },
    {
        "id": 744,
        "name": "IAIN MANADO",
        "lat": 1.4678713,
        "lng": 124.8841803
    },
    {
        "id": 745,
        "name": "IAIN MANADO",
        "lat": 1.4677672,
        "lng": 124.8843724
    },
    {
        "id": 746,
        "name": "IAIN MANADO",
        "lat": 1.4671941,
        "lng": 124.8841853
    },
    {
        "id": 747,
        "name": "IAIN MANADO",
        "lat": 1.4673399,
        "lng": 124.8852686
    },
    {
        "id": 748,
        "name": "IAIN MANADO",
        "lat": 1.4677608,
        "lng": 124.8848518
    },
    {
        "id": 749,
        "name": "IAIN MANADO",
        "lat": 1.4670804,
        "lng": 124.8843178
    },
    {
        "id": 750,
        "name": "IAIN MANADO",
        "lat": 1.4674245,
        "lng": 124.8839797
    },
    {
        "id": 751,
        "name": "IAIN MANADO",
        "lat": 1.4675263,
        "lng": 124.8838315
    },
    {
        "id": 752,
        "name": "IAIN MANADO",
        "lat": 1.4674137,
        "lng": 124.8844775
    },
    {
        "id": 753,
        "name": "IAIN MANADO",
        "lat": 1.4676068,
        "lng": 124.8846513
    },
    {
        "id": 754,
        "name": "IAIN MANADO",
        "lat": 1.4672776,
        "lng": 124.8840451
    },
    {
        "id": 755,
        "name": "STIKS MANADO sekolah tinggi ilmu Kesejahteraan sosial",
        "lat": 1.4820925,
        "lng": 124.8416944
    },
    {
        "id": 756,
        "name": "Universitas Pembangunan Indonesia Manado",
        "lat": 1.4537015,
        "lng": 124.8195372
    },
    {
        "id": 757,
        "name": "Lembaga Pembinaan Dan Pengembangan Pembelajaran",
        "lat": 1.4559972,
        "lng": 124.8299135
    },
    {
        "id": 758,
        "name": "POLTEKES KEMENKES",
        "lat": 1.4699151,
        "lng": 124.8791285
    },
    {
        "id": 759,
        "name": "POLTEKES KEMENKES",
        "lat": 1.4697747,
        "lng": 124.8785834
    },
    {
        "id": 760,
        "name": "Politeknik Negeri Manado",
        "lat": 1.5195526,
        "lng": 124.8869157
    },
    {
        "id": 761,
        "name": "Universitas Prisma",
        "lat": 1.4745163,
        "lng": 124.8559556
    },
    {
        "id": 762,
        "name": "POLTEKES KEMENKES",
        "lat": 1.4695309,
        "lng": 124.8788349
    },
    {
        "id": 763,
        "name": "POLTEKES KEMENKES",
        "lat": 1.4697143,
        "lng": 124.8789932
    },
    {
        "id": 764,
        "name": "Sekolah Tinggi Teologia Kalvari Buha",
        "lat": 1.525892,
        "lng": 124.8814053
    },
    {
        "id": 765,
        "name": "Universitas Hang Tuah",
        "lat": -7.3110504,
        "lng": 112.7368142
    },
    {
        "id": 766,
        "name": "POLTEKES KEMENKES",
        "lat": 1.4702095,
        "lng": 124.8787875
    },
    {
        "id": 767,
        "name": "Sekolah Tinggi Bahasa Asing (STIBA) Bumi Beringin",
        "lat": 1.4789798,
        "lng": 124.8425967
    },
    {
        "id": 768,
        "name": "Universitas",
        "lat": 1.5213034,
        "lng": 124.8557788
    },
    {
        "id": 769,
        "name": "Unnamed Campus",
        "lat": 1.4610512,
        "lng": 124.8295625
    },
    {
        "id": 770,
        "name": "Universitas Kartini Surabaya",
        "lat": -7.3007603,
        "lng": 112.7624796
    },
    {
        "id": 771,
        "name": "La Salle College Wonokromo Surabaya",
        "lat": -7.2913414,
        "lng": 112.7416903
    },
    {
        "id": 772,
        "name": "STIESIA",
        "lat": -7.2891699,
        "lng": 112.7665189
    },
    {
        "id": 773,
        "name": "Institut Teknologi Adhi Tama Surabaya",
        "lat": -7.2909016,
        "lng": 112.7790513
    },
    {
        "id": 774,
        "name": "Kampus A Universitas Airlangga",
        "lat": -7.2647041,
        "lng": 112.7585415
    },
    {
        "id": 775,
        "name": "Kampus B Universitas Airlangga",
        "lat": -7.2722888,
        "lng": 112.7585213
    },